[
  {
    "name": "A Coruna Airport (Spain)",
    "Latitude": 43.3,
    "Longitude": -8.38,
    "Altitude (ft)": 326
  },
  {
    "name": "Aachen Merzbruck Airport (Germany)",
    "Latitude": 50.82,
    "Longitude": 6.19,
    "Altitude (ft)": 623
  },
  {
    "name": "Aalborg Airport (Denmark)",
    "Latitude": 57.09,
    "Longitude": 9.85,
    "Altitude (ft)": 10
  },
  {
    "name": "Aarhus Airport (Denmark)",
    "Latitude": 56.3,
    "Longitude": 10.62,
    "Altitude (ft)": 82
  },
  {
    "name": "Aarhus Sea Airport (Denmark)",
    "Latitude": 56.15,
    "Longitude": 10.25,
    "Altitude (ft)": 1
  },
  {
    "name": "Aasiaat Airport (Greenland)",
    "Latitude": 68.72,
    "Longitude": -52.78,
    "Altitude (ft)": 74
  },
  {
    "name": "Abadan Airport (Iran)",
    "Latitude": 30.37,
    "Longitude": 48.23,
    "Altitude (ft)": 19
  },
  {
    "name": "Abakan International Airport (Russia)",
    "Latitude": 53.74,
    "Longitude": 91.39,
    "Altitude (ft)": 831
  },
  {
    "name": "Abbotsford International Airport (Canada)",
    "Latitude": 49.03,
    "Longitude": -122.36,
    "Altitude (ft)": 195
  },
  {
    "name": "Aberdeen International Airport (United Kingdom)",
    "Latitude": 57.2,
    "Longitude": -2.2,
    "Altitude (ft)": 215
  },
  {
    "name": "Aberdeen Regional Airport (United States)",
    "Latitude": 45.44,
    "Longitude": -98.42,
    "Altitude (ft)": 1302
  },
  {
    "name": "Abha Regional Airport (Saudi Arabia)",
    "Latitude": 18.24,
    "Longitude": 42.66,
    "Altitude (ft)": 6858
  },
  {
    "name": "Abidjan Port Bouet Airport (Cote D'ivoire (Ivory Coast))",
    "Latitude": 5.26,
    "Longitude": -3.93,
    "Altitude (ft)": 21
  },
  {
    "name": "Abilene Regional Airport (United States)",
    "Latitude": 32.41,
    "Longitude": -99.68,
    "Altitude (ft)": 1790
  },
  {
    "name": "Abingdon Virginia Highlands Airport (United States)",
    "Latitude": 36.69,
    "Longitude": -82.03,
    "Altitude (ft)": 2088
  },
  {
    "name": "Abu Dhabi Al Bateen Executive Airport (United Arab Emirates)",
    "Latitude": 24.43,
    "Longitude": 54.46,
    "Altitude (ft)": 16
  },
  {
    "name": "Abu Dhabi Al Dhafra Air Base (United Arab Emirates)",
    "Latitude": 24.25,
    "Longitude": 54.55,
    "Altitude (ft)": 77
  },
  {
    "name": "Abu Dhabi International Airport (United Arab Emirates)",
    "Latitude": 24.43,
    "Longitude": 54.65,
    "Altitude (ft)": 88
  },
  {
    "name": "Abu Musa Island Airport (Iran)",
    "Latitude": 25.88,
    "Longitude": 55.03,
    "Altitude (ft)": 23
  },
  {
    "name": "Abu Simbel Airport (Egypt)",
    "Latitude": 22.38,
    "Longitude": 31.61,
    "Altitude (ft)": 616
  },
  {
    "name": "Abuja Nnamdi Azikiwe International Airport (Nigeria)",
    "Latitude": 9.01,
    "Longitude": 7.26,
    "Altitude (ft)": 1123
  },
  {
    "name": "Acapulco International Airport (Mexico)",
    "Latitude": 16.76,
    "Longitude": -99.75,
    "Altitude (ft)": 16
  },
  {
    "name": "Accra Kotoka International Airport (Ghana)",
    "Latitude": 5.61,
    "Longitude": -0.17,
    "Altitude (ft)": 205
  },
  {
    "name": "Ada Municipal Airport (United States)",
    "Latitude": 34.8,
    "Longitude": -96.67,
    "Altitude (ft)": 1016
  },
  {
    "name": "Adak Airport (United States)",
    "Latitude": 51.88,
    "Longitude": -176.65,
    "Altitude (ft)": 18
  },
  {
    "name": "Adampur Airport (India)",
    "Latitude": 31.43,
    "Longitude": 75.76,
    "Altitude (ft)": 776
  },
  {
    "name": "Adana Sakirpasa Airport (Turkey)",
    "Latitude": 36.98,
    "Longitude": 35.28,
    "Altitude (ft)": 65
  },
  {
    "name": "Addis Ababa Bole Airport (Ethiopia)",
    "Latitude": 8.98,
    "Longitude": 38.8,
    "Altitude (ft)": 7656
  },
  {
    "name": "Adelaide Airport (Australia)",
    "Latitude": -34.95,
    "Longitude": 138.53,
    "Altitude (ft)": 20
  },
  {
    "name": "Aden International Airport (Yemen)",
    "Latitude": 12.83,
    "Longitude": 45.03,
    "Altitude (ft)": 7
  },
  {
    "name": "Adiyaman Airport (Turkey)",
    "Latitude": 37.73,
    "Longitude": 38.47,
    "Altitude (ft)": 2216
  },
  {
    "name": "Adrar Airport (Algeria)",
    "Latitude": 27.84,
    "Longitude": -0.19,
    "Altitude (ft)": 919
  },
  {
    "name": "Adrian Lenawee County Airport (United States)",
    "Latitude": 41.87,
    "Longitude": -84.08,
    "Altitude (ft)": 798
  },
  {
    "name": "Afton Municipal Airport (United States)",
    "Latitude": 42.71,
    "Longitude": -110.94,
    "Altitude (ft)": 6221
  },
  {
    "name": "Agades Mano Dayak International Airport (Niger)",
    "Latitude": 16.97,
    "Longitude": 8.0,
    "Altitude (ft)": 1657
  },
  {
    "name": "Agadir Al Massira Airport (Morocco)",
    "Latitude": 30.32,
    "Longitude": -9.41,
    "Altitude (ft)": 250
  },
  {
    "name": "Agartala Airport (India)",
    "Latitude": 23.89,
    "Longitude": 91.24,
    "Altitude (ft)": 46
  },
  {
    "name": "Agatti Airport (India)",
    "Latitude": 10.82,
    "Longitude": 72.18,
    "Altitude (ft)": 14
  },
  {
    "name": "Agen La Garenne Airport (France)",
    "Latitude": 44.17,
    "Longitude": 0.59,
    "Altitude (ft)": 204
  },
  {
    "name": "Aghajari Airport (Iran)",
    "Latitude": 30.74,
    "Longitude": 49.68,
    "Altitude (ft)": 88
  },
  {
    "name": "Agra Airport (India)",
    "Latitude": 27.16,
    "Longitude": 77.96,
    "Altitude (ft)": 551
  },
  {
    "name": "Agri Airport (Turkey)",
    "Latitude": 39.65,
    "Longitude": 43.03,
    "Altitude (ft)": 5462
  },
  {
    "name": "Agua Boa Airport (Brazil)",
    "Latitude": -14.02,
    "Longitude": -52.15,
    "Altitude (ft)": 1506
  },
  {
    "name": "Aguachica Hacaritama Airport (Colombia)",
    "Latitude": 8.25,
    "Longitude": -73.58,
    "Altitude (ft)": 531
  },
  {
    "name": "Aguadilla Rafael Hernandez Airport (Puerto Rico)",
    "Latitude": 18.49,
    "Longitude": -67.13,
    "Altitude (ft)": 237
  },
  {
    "name": "Aguascalientes International Airport (Mexico)",
    "Latitude": 21.71,
    "Longitude": -102.32,
    "Altitude (ft)": 6112
  },
  {
    "name": "Ahe Airport (French Polynesia)",
    "Latitude": -14.43,
    "Longitude": -146.26,
    "Altitude (ft)": 11
  },
  {
    "name": "Ahmedabad International Airport (India)",
    "Latitude": 23.08,
    "Longitude": 72.63,
    "Altitude (ft)": 189
  },
  {
    "name": "Ahwaz International Airport (Iran)",
    "Latitude": 31.34,
    "Longitude": 48.76,
    "Altitude (ft)": 66
  },
  {
    "name": "Aiken Municipal Airport (United States)",
    "Latitude": 33.65,
    "Longitude": -81.68,
    "Altitude (ft)": 528
  },
  {
    "name": "Airai Roman Tmetuchl International Airport (Palau)",
    "Latitude": 7.37,
    "Longitude": 134.54,
    "Altitude (ft)": 176
  },
  {
    "name": "Aitutaki Airport (Cook Islands)",
    "Latitude": -18.83,
    "Longitude": -159.76,
    "Altitude (ft)": 14
  },
  {
    "name": "Aix-en-Provence Airport (France)",
    "Latitude": 43.51,
    "Longitude": 5.37,
    "Altitude (ft)": 368
  },
  {
    "name": "Aizawl Lengpui Airport (India)",
    "Latitude": 23.84,
    "Longitude": 92.62,
    "Altitude (ft)": 1001
  },
  {
    "name": "Ajaccio Napoleon Bonaparte Airport (France)",
    "Latitude": 41.92,
    "Longitude": 8.8,
    "Altitude (ft)": 16
  },
  {
    "name": "Akiak Airport (United States)",
    "Latitude": 60.9,
    "Longitude": -161.23,
    "Altitude (ft)": 30
  },
  {
    "name": "Akita Airport (Japan)",
    "Latitude": 39.62,
    "Longitude": 140.22,
    "Altitude (ft)": 313
  },
  {
    "name": "Aklavik Airport (Canada)",
    "Latitude": 68.22,
    "Longitude": -135.01,
    "Altitude (ft)": 23
  },
  {
    "name": "Akron Canton Airport (United States)",
    "Latitude": 40.92,
    "Longitude": -81.44,
    "Altitude (ft)": 1225
  },
  {
    "name": "Akron Fulton International Airport (United States)",
    "Latitude": 41.04,
    "Longitude": -81.47,
    "Altitude (ft)": 1067
  },
  {
    "name": "Aksu Airport (China)",
    "Latitude": 41.26,
    "Longitude": 80.29,
    "Altitude (ft)": 3816
  },
  {
    "name": "Aktau Airport (Kazakhstan)",
    "Latitude": 43.86,
    "Longitude": 51.09,
    "Altitude (ft)": 73
  },
  {
    "name": "Aktion National Airport (Greece)",
    "Latitude": 38.93,
    "Longitude": 20.77,
    "Altitude (ft)": 11
  },
  {
    "name": "Aktobe Airport (Kazakhstan)",
    "Latitude": 50.25,
    "Longitude": 57.21,
    "Altitude (ft)": 738
  },
  {
    "name": "Akulivik Airport (Canada)",
    "Latitude": 60.82,
    "Longitude": -78.15,
    "Altitude (ft)": 75
  },
  {
    "name": "Akure Airport (Nigeria)",
    "Latitude": 7.25,
    "Longitude": 5.3,
    "Altitude (ft)": 1100
  },
  {
    "name": "Akureyri Airport (Iceland)",
    "Latitude": 65.66,
    "Longitude": -18.07,
    "Altitude (ft)": 6
  },
  {
    "name": "Al Ain International Airport (United Arab Emirates)",
    "Latitude": 24.26,
    "Longitude": 55.61,
    "Altitude (ft)": 869
  },
  {
    "name": "Al Hoceima Cherif Al Idrissi Airport (Morocco)",
    "Latitude": 35.18,
    "Longitude": -3.84,
    "Altitude (ft)": 95
  },
  {
    "name": "Al Najaf International Airport (Iraq)",
    "Latitude": 31.99,
    "Longitude": 44.4,
    "Altitude (ft)": 108
  },
  {
    "name": "Al Udeid Air Base (Qatar)",
    "Latitude": 25.11,
    "Longitude": 51.32,
    "Altitude (ft)": 130
  },
  {
    "name": "Al Ula  Airport (Saudi Arabia)",
    "Latitude": 26.48,
    "Longitude": 38.12,
    "Altitude (ft)": 2017
  },
  {
    "name": "Al Wajh Airport (Saudi Arabia)",
    "Latitude": 26.2,
    "Longitude": 36.48,
    "Altitude (ft)": 66
  },
  {
    "name": "Al-Baha Domestic Airport (Saudi Arabia)",
    "Latitude": 20.3,
    "Longitude": 41.63,
    "Altitude (ft)": 5486
  },
  {
    "name": "Al-Qamishli Airport (Syria)",
    "Latitude": 37.03,
    "Longitude": 41.21,
    "Altitude (ft)": 1480
  },
  {
    "name": "Al-Qassim International Airport (Saudi Arabia)",
    "Latitude": 26.3,
    "Longitude": 43.77,
    "Altitude (ft)": 2126
  },
  {
    "name": "Alakanuk Airport (United States)",
    "Latitude": 62.68,
    "Longitude": -164.72,
    "Altitude (ft)": 22
  },
  {
    "name": "Alamogordo White Sands Regional Airport (United States)",
    "Latitude": 32.85,
    "Longitude": -105.99,
    "Altitude (ft)": 4200
  },
  {
    "name": "Alamosa San Luis Valley Regional Airport (United States)",
    "Latitude": 37.43,
    "Longitude": -105.87,
    "Altitude (ft)": 7539
  },
  {
    "name": "Albacete Airport (Spain)",
    "Latitude": 38.95,
    "Longitude": -1.86,
    "Altitude (ft)": 2302
  },
  {
    "name": "Albany Airport (Australia)",
    "Latitude": -34.94,
    "Longitude": 117.8,
    "Altitude (ft)": 233
  },
  {
    "name": "Albany International Airport (United States)",
    "Latitude": 42.75,
    "Longitude": -73.8,
    "Altitude (ft)": 285
  },
  {
    "name": "Albany Southwest Georgia Regional Airport (United States)",
    "Latitude": 31.54,
    "Longitude": -84.19,
    "Altitude (ft)": 196
  },
  {
    "name": "Albenga Clemente Panero International Airport (Italy)",
    "Latitude": 44.05,
    "Longitude": 8.13,
    "Altitude (ft)": 148
  },
  {
    "name": "Albert Picardie Airport (France)",
    "Latitude": 49.97,
    "Longitude": 2.7,
    "Altitude (ft)": 364
  },
  {
    "name": "Albi Le Sequestre Airport (France)",
    "Latitude": 43.91,
    "Longitude": 2.12,
    "Altitude (ft)": 564
  },
  {
    "name": "Albuquerque International Airport (United States)",
    "Latitude": 35.04,
    "Longitude": -106.61,
    "Altitude (ft)": 5355
  },
  {
    "name": "Albury Airport (Australia)",
    "Latitude": -36.07,
    "Longitude": 146.96,
    "Altitude (ft)": 539
  },
  {
    "name": "Aldan Airport (Russia)",
    "Latitude": 58.6,
    "Longitude": 125.41,
    "Altitude (ft)": 2241
  },
  {
    "name": "Alderney Airport (United Kingdom)",
    "Latitude": 49.71,
    "Longitude": -2.21,
    "Altitude (ft)": 290
  },
  {
    "name": "Alegrete Novo Airport (Brazil)",
    "Latitude": -29.81,
    "Longitude": -55.89,
    "Altitude (ft)": 459
  },
  {
    "name": "Aleppo International Airport (Syria)",
    "Latitude": 36.18,
    "Longitude": 37.22,
    "Altitude (ft)": 1276
  },
  {
    "name": "Alert Airport (Canada)",
    "Latitude": 82.52,
    "Longitude": -62.28,
    "Altitude (ft)": 100
  },
  {
    "name": "Alesund Vigra Airport (Norway)",
    "Latitude": 62.56,
    "Longitude": 6.11,
    "Altitude (ft)": 69
  },
  {
    "name": "Alexander City Thomas C Russell Field (United States)",
    "Latitude": 32.93,
    "Longitude": -85.95,
    "Altitude (ft)": 686
  },
  {
    "name": "Alexandria Borg El Arab Airport (Egypt)",
    "Latitude": 30.92,
    "Longitude": 29.7,
    "Altitude (ft)": 177
  },
  {
    "name": "Alexandria International Airport (United States)",
    "Latitude": 31.33,
    "Longitude": -92.55,
    "Altitude (ft)": 89
  },
  {
    "name": "Alexandria Municipal Airport (United States)",
    "Latitude": 45.87,
    "Longitude": -95.39,
    "Altitude (ft)": 1425
  },
  {
    "name": "Alexandroupolis International Airport (Greece)",
    "Latitude": 40.86,
    "Longitude": 25.96,
    "Altitude (ft)": 24
  },
  {
    "name": "Algeciras Heliport (Spain)",
    "Latitude": 36.13,
    "Longitude": -5.44,
    "Altitude (ft)": 98
  },
  {
    "name": "Alghero Fertilia Airport (Italy)",
    "Latitude": 40.63,
    "Longitude": 8.29,
    "Altitude (ft)": 87
  },
  {
    "name": "Algiers Houari Boumediene Airport (Algeria)",
    "Latitude": 36.69,
    "Longitude": 3.22,
    "Altitude (ft)": 82
  },
  {
    "name": "Alicante Airport (Spain)",
    "Latitude": 38.28,
    "Longitude": -0.56,
    "Altitude (ft)": 142
  },
  {
    "name": "Alice International Airport (United States)",
    "Latitude": 27.74,
    "Longitude": -98.03,
    "Altitude (ft)": 178
  },
  {
    "name": "Alice Springs Airport (Australia)",
    "Latitude": -23.81,
    "Longitude": 133.9,
    "Altitude (ft)": 1789
  },
  {
    "name": "Allahabad Airport (India)",
    "Latitude": 25.44,
    "Longitude": 81.73,
    "Altitude (ft)": 319
  },
  {
    "name": "Allakaket Airport (United States)",
    "Latitude": 66.55,
    "Longitude": -152.62,
    "Altitude (ft)": 441
  },
  {
    "name": "Allendorf Airport (Germany)",
    "Latitude": 51.04,
    "Longitude": 8.68,
    "Altitude (ft)": 1164
  },
  {
    "name": "Allentown Lehigh Valley International Airport (United States)",
    "Latitude": 40.65,
    "Longitude": -75.44,
    "Altitude (ft)": 393
  },
  {
    "name": "Alliance Municipal Airport (United States)",
    "Latitude": 42.05,
    "Longitude": -102.8,
    "Altitude (ft)": 3931
  },
  {
    "name": "Alma Airport (Canada)",
    "Latitude": 48.51,
    "Longitude": -71.64,
    "Altitude (ft)": 434
  },
  {
    "name": "Almaty International Airport (Kazakhstan)",
    "Latitude": 43.35,
    "Longitude": 77.04,
    "Altitude (ft)": 2234
  },
  {
    "name": "Almeirim Airport (Brazil)",
    "Latitude": -1.48,
    "Longitude": -52.58,
    "Altitude (ft)": 584
  },
  {
    "name": "Almeria Airport (Spain)",
    "Latitude": 36.84,
    "Longitude": -2.37,
    "Altitude (ft)": 70
  },
  {
    "name": "Alor Island Airport (Indonesia)",
    "Latitude": -8.13,
    "Longitude": 124.6,
    "Altitude (ft)": 10
  },
  {
    "name": "Alor Setar Sultan Abdul Halim Airport (Malaysia)",
    "Latitude": 6.19,
    "Longitude": 100.4,
    "Altitude (ft)": 15
  },
  {
    "name": "Alpena County Regional Airport (United States)",
    "Latitude": 45.08,
    "Longitude": -83.56,
    "Altitude (ft)": 689
  },
  {
    "name": "Alta Airport (Norway)",
    "Latitude": 69.98,
    "Longitude": 23.37,
    "Altitude (ft)": 9
  },
  {
    "name": "Alta Floresta Airport (Brazil)",
    "Latitude": -9.87,
    "Longitude": -56.11,
    "Altitude (ft)": 947
  },
  {
    "name": "Altai Airport (Mongolia)",
    "Latitude": 46.65,
    "Longitude": 96.42,
    "Altitude (ft)": 7261
  },
  {
    "name": "Altamira Airport (Brazil)",
    "Latitude": -3.25,
    "Longitude": -52.25,
    "Altitude (ft)": 368
  },
  {
    "name": "Altay Airport (China)",
    "Latitude": 47.75,
    "Longitude": 88.08,
    "Altitude (ft)": 1750
  },
  {
    "name": "Altenburg Nobitz Airport (Germany)",
    "Latitude": 50.98,
    "Longitude": 12.51,
    "Altitude (ft)": 640
  },
  {
    "name": "Altenstadt Air Base (Germany)",
    "Latitude": 47.84,
    "Longitude": 10.87,
    "Altitude (ft)": 2423
  },
  {
    "name": "Alton St. Louis Regional Airport (United States)",
    "Latitude": 38.89,
    "Longitude": -90.05,
    "Altitude (ft)": 544
  },
  {
    "name": "Altoona Blair County Airport (United States)",
    "Latitude": 40.3,
    "Longitude": -78.32,
    "Altitude (ft)": 1503
  },
  {
    "name": "Alverca Airport (Portugal)",
    "Latitude": 38.88,
    "Longitude": -9.03,
    "Altitude (ft)": 5
  },
  {
    "name": "Alzintan Airport (Libya)",
    "Latitude": 31.77,
    "Longitude": 12.25,
    "Altitude (ft)": 2080
  },
  {
    "name": "Amakusa Airport (Japan)",
    "Latitude": 32.48,
    "Longitude": 130.16,
    "Altitude (ft)": 328
  },
  {
    "name": "Amami Airport (Japan)",
    "Latitude": 28.43,
    "Longitude": 129.71,
    "Altitude (ft)": 27
  },
  {
    "name": "Amarillo Rick Husband  International Airport (United States)",
    "Latitude": 35.22,
    "Longitude": -101.71,
    "Altitude (ft)": 3607
  },
  {
    "name": "Amarillo Tradewind Airport (United States)",
    "Latitude": 35.17,
    "Longitude": -101.83,
    "Altitude (ft)": 3649
  },
  {
    "name": "Ambler Airport (United States)",
    "Latitude": 67.09,
    "Longitude": -157.85,
    "Altitude (ft)": 289
  },
  {
    "name": "Ambon Pattimura Airport (Indonesia)",
    "Latitude": -3.71,
    "Longitude": 128.09,
    "Altitude (ft)": 33
  },
  {
    "name": "Amboseli Airport (Kenya)",
    "Latitude": -2.63,
    "Longitude": 37.25,
    "Altitude (ft)": 3755
  },
  {
    "name": "Ames Municipal Airport (United States)",
    "Latitude": 41.99,
    "Longitude": -93.62,
    "Altitude (ft)": 956
  },
  {
    "name": "Amman Civil Airport (Jordan)",
    "Latitude": 31.97,
    "Longitude": 35.99,
    "Altitude (ft)": 2555
  },
  {
    "name": "Amman Queen Alia International Airport (Jordan)",
    "Latitude": 31.72,
    "Longitude": 35.99,
    "Altitude (ft)": 2395
  },
  {
    "name": "Amos Magny Airport (Canada)",
    "Latitude": 48.56,
    "Longitude": -78.25,
    "Altitude (ft)": 1076
  },
  {
    "name": "Amritsar International Airport (India)",
    "Latitude": 31.71,
    "Longitude": 74.8,
    "Altitude (ft)": 756
  },
  {
    "name": "Amsterdam Schiphol Airport (Netherlands)",
    "Latitude": 52.31,
    "Longitude": 4.76,
    "Altitude (ft)": 11
  },
  {
    "name": "Anadyr Ugolny Airport (Russia)",
    "Latitude": 64.73,
    "Longitude": 177.74,
    "Altitude (ft)": 194
  },
  {
    "name": "Anaktuvuk Pass Airport (United States)",
    "Latitude": 68.13,
    "Longitude": -151.74,
    "Altitude (ft)": 2106
  },
  {
    "name": "Anapa Airport (Russia)",
    "Latitude": 45.0,
    "Longitude": 37.35,
    "Altitude (ft)": 174
  },
  {
    "name": "Anapolis Airport (Brazil)",
    "Latitude": -16.23,
    "Longitude": -48.96,
    "Altitude (ft)": 3712
  },
  {
    "name": "Anchorage Elmendorf Air Force Base (United States)",
    "Latitude": 61.25,
    "Longitude": -149.81,
    "Altitude (ft)": 213
  },
  {
    "name": "Anchorage Merrill Field Airport (United States)",
    "Latitude": 61.21,
    "Longitude": -149.84,
    "Altitude (ft)": 137
  },
  {
    "name": "Anchorage Ted Stevens International Airport (United States)",
    "Latitude": 61.17,
    "Longitude": -150.0,
    "Altitude (ft)": 151
  },
  {
    "name": "Ancona Airport (Italy)",
    "Latitude": 43.62,
    "Longitude": 13.36,
    "Altitude (ft)": 49
  },
  {
    "name": "Andenes Andoya Airport (Norway)",
    "Latitude": 69.29,
    "Longitude": 16.14,
    "Altitude (ft)": 43
  },
  {
    "name": "Anderson Municipal Airport (United States)",
    "Latitude": 40.11,
    "Longitude": -85.61,
    "Altitude (ft)": 891
  },
  {
    "name": "Anderson Regional Airport (United States)",
    "Latitude": 34.49,
    "Longitude": -82.71,
    "Altitude (ft)": 782
  },
  {
    "name": "Andizhan Airport (Uzbekistan)",
    "Latitude": 40.73,
    "Longitude": 72.29,
    "Altitude (ft)": 1515
  },
  {
    "name": "Andorra La Seu de Urgel Airport (Spain)",
    "Latitude": 42.34,
    "Longitude": 1.41,
    "Altitude (ft)": 2625
  },
  {
    "name": "Andros Town International Airport (Bahamas)",
    "Latitude": 24.7,
    "Longitude": -77.8,
    "Altitude (ft)": 5
  },
  {
    "name": "Anegada Auguste George Airport (Virgin Islands, British)",
    "Latitude": 18.73,
    "Longitude": -64.33,
    "Altitude (ft)": 21
  },
  {
    "name": "Angeles City Clark International Airport (Philippines)",
    "Latitude": 15.19,
    "Longitude": 120.56,
    "Altitude (ft)": 484
  },
  {
    "name": "Angelholm Helsingborg Airport (Sweden)",
    "Latitude": 56.3,
    "Longitude": 12.85,
    "Altitude (ft)": 68
  },
  {
    "name": "Angers Loire Airport (France)",
    "Latitude": 47.56,
    "Longitude": -0.31,
    "Altitude (ft)": 194
  },
  {
    "name": "Anglesey Airport (United Kingdom)",
    "Latitude": 53.24,
    "Longitude": -4.53,
    "Altitude (ft)": -1
  },
  {
    "name": "Angola Tri-State Steuben County Airport (United States)",
    "Latitude": 41.64,
    "Longitude": -85.08,
    "Altitude (ft)": 995
  },
  {
    "name": "Angouleme Cognac International Airport (France)",
    "Latitude": 45.73,
    "Longitude": 0.22,
    "Altitude (ft)": 436
  },
  {
    "name": "Angra dos Reis Airport (Brazil)",
    "Latitude": -22.98,
    "Longitude": -44.31,
    "Altitude (ft)": 10
  },
  {
    "name": "Aniak Airport (United States)",
    "Latitude": 61.58,
    "Longitude": -159.54,
    "Altitude (ft)": 89
  },
  {
    "name": "Anjouan Ouani Airport (Comoros)",
    "Latitude": -12.13,
    "Longitude": 44.43,
    "Altitude (ft)": 62
  },
  {
    "name": "Ankang Fuqiang Airport (China)",
    "Latitude": 32.71,
    "Longitude": 108.93,
    "Altitude (ft)": 849
  },
  {
    "name": "Ankara Esenboga International Airport (Turkey)",
    "Latitude": 40.13,
    "Longitude": 33.0,
    "Altitude (ft)": 3125
  },
  {
    "name": "Ankeny Regional Airport (United States)",
    "Latitude": 41.69,
    "Longitude": -93.57,
    "Altitude (ft)": 910
  },
  {
    "name": "Ann Airport (Myanmar (Burma))",
    "Latitude": 19.77,
    "Longitude": 94.03,
    "Altitude (ft)": 43
  },
  {
    "name": "Ann Arbor Municipal Airport (United States)",
    "Latitude": 42.22,
    "Longitude": -83.75,
    "Altitude (ft)": 839
  },
  {
    "name": "Annaba Rabah Bitat Airport (Algeria)",
    "Latitude": 36.82,
    "Longitude": 7.81,
    "Altitude (ft)": 16
  },
  {
    "name": "Annapolis Lee Airport (United States)",
    "Latitude": 38.94,
    "Longitude": -76.57,
    "Altitude (ft)": 34
  },
  {
    "name": "Annecy Mont Blanc Airport (France)",
    "Latitude": 45.93,
    "Longitude": 6.11,
    "Altitude (ft)": 1519
  },
  {
    "name": "Annemasse Airport (France)",
    "Latitude": 46.19,
    "Longitude": 6.27,
    "Altitude (ft)": 1617
  },
  {
    "name": "Anniston Regional (United States)",
    "Latitude": 33.59,
    "Longitude": -85.86,
    "Altitude (ft)": 612
  },
  {
    "name": "Anqing Tianzhushan Airport (China)",
    "Latitude": 30.58,
    "Longitude": 117.05,
    "Altitude (ft)": -1
  },
  {
    "name": "Anshan Teng'ao Airport (China)",
    "Latitude": 41.1,
    "Longitude": 122.86,
    "Altitude (ft)": 53
  },
  {
    "name": "Anshun Huangguoshu Airport (China)",
    "Latitude": 26.26,
    "Longitude": 105.87,
    "Altitude (ft)": 4812
  },
  {
    "name": "Antakya Hatay Airport (Turkey)",
    "Latitude": 36.36,
    "Longitude": 36.28,
    "Altitude (ft)": 25
  },
  {
    "name": "Antalya Airport (Turkey)",
    "Latitude": 36.9,
    "Longitude": 30.8,
    "Altitude (ft)": 177
  },
  {
    "name": "Antananarivo Ivato International Airport (Madagascar)",
    "Latitude": -18.8,
    "Longitude": 47.48,
    "Altitude (ft)": 4198
  },
  {
    "name": "Antigua V. C. Bird International Airport (Antigua And Barbuda)",
    "Latitude": 17.14,
    "Longitude": -61.79,
    "Altitude (ft)": 62
  },
  {
    "name": "Antofagasta International Airport (Chile)",
    "Latitude": -23.44,
    "Longitude": -70.45,
    "Altitude (ft)": 455
  },
  {
    "name": "Antsiranana Arrachart Airport (Madagascar)",
    "Latitude": -12.35,
    "Longitude": 49.29,
    "Altitude (ft)": 374
  },
  {
    "name": "Antwerp International Airport (Belgium)",
    "Latitude": 51.19,
    "Longitude": 4.46,
    "Altitude (ft)": 39
  },
  {
    "name": "Anvik Airport (United States)",
    "Latitude": 62.65,
    "Longitude": -160.19,
    "Altitude (ft)": 309
  },
  {
    "name": "Aomori Airport (Japan)",
    "Latitude": 40.73,
    "Longitude": 140.69,
    "Altitude (ft)": 664
  },
  {
    "name": "Aosta Airport (Italy)",
    "Latitude": 45.74,
    "Longitude": 7.37,
    "Altitude (ft)": 1791
  },
  {
    "name": "Apalachicola Regional Airport (United States)",
    "Latitude": 29.73,
    "Longitude": -84.98,
    "Altitude (ft)": 20
  },
  {
    "name": "Apartado Airport (Colombia)",
    "Latitude": 7.82,
    "Longitude": -76.72,
    "Altitude (ft)": 46
  },
  {
    "name": "Apatity Airport (Russia)",
    "Latitude": 67.46,
    "Longitude": 33.59,
    "Altitude (ft)": 515
  },
  {
    "name": "Apia Faleolo International Airport (Samoa)",
    "Latitude": -13.83,
    "Longitude": -172.0,
    "Altitude (ft)": 58
  },
  {
    "name": "Apple Valley Airport (United States)",
    "Latitude": 34.58,
    "Longitude": -117.19,
    "Altitude (ft)": 3062
  },
  {
    "name": "Appleton International Airport (United States)",
    "Latitude": 44.26,
    "Longitude": -88.52,
    "Altitude (ft)": 918
  },
  {
    "name": "Apucarana Airport (Brazil)",
    "Latitude": -23.61,
    "Longitude": -51.38,
    "Altitude (ft)": 2641
  },
  {
    "name": "Apui Airport (Brazil)",
    "Latitude": -7.17,
    "Longitude": -59.84,
    "Altitude (ft)": 614
  },
  {
    "name": "Aqaba King Hussein International Airport (Jordan)",
    "Latitude": 29.61,
    "Longitude": 35.02,
    "Altitude (ft)": 175
  },
  {
    "name": "Aracaju Santa Maria Airport (Brazil)",
    "Latitude": -10.98,
    "Longitude": -37.07,
    "Altitude (ft)": 23
  },
  {
    "name": "Aracati Airport (Brazil)",
    "Latitude": -4.57,
    "Longitude": -37.8,
    "Altitude (ft)": 128
  },
  {
    "name": "Aracatuba Airport (Brazil)",
    "Latitude": -21.14,
    "Longitude": -50.42,
    "Altitude (ft)": 1361
  },
  {
    "name": "Arad International Airport (Romania)",
    "Latitude": 46.18,
    "Longitude": 21.26,
    "Altitude (ft)": 352
  },
  {
    "name": "Araguaina Airport (Brazil)",
    "Latitude": -7.23,
    "Longitude": -48.24,
    "Altitude (ft)": 771
  },
  {
    "name": "Arak Airport (Iran)",
    "Latitude": 34.14,
    "Longitude": 49.85,
    "Altitude (ft)": 5440
  },
  {
    "name": "Arapongas Airport (Brazil)",
    "Latitude": -23.35,
    "Longitude": -51.49,
    "Altitude (ft)": 2599
  },
  {
    "name": "Arar Domestic Airport (Saudi Arabia)",
    "Latitude": 30.91,
    "Longitude": 41.14,
    "Altitude (ft)": 1813
  },
  {
    "name": "Araraquara Airport (Brazil)",
    "Latitude": -21.81,
    "Longitude": -48.13,
    "Altitude (ft)": 2334
  },
  {
    "name": "Araripina Airport (Brazil)",
    "Latitude": -7.59,
    "Longitude": -40.54,
    "Altitude (ft)": 2421
  },
  {
    "name": "Arauca Santiago Perez Quiroz Airport (Colombia)",
    "Latitude": 7.07,
    "Longitude": -70.74,
    "Altitude (ft)": 420
  },
  {
    "name": "Araxa Airport (Brazil)",
    "Latitude": -19.56,
    "Longitude": -46.96,
    "Altitude (ft)": 3247
  },
  {
    "name": "Arba Minch Airport (Ethiopia)",
    "Latitude": 6.04,
    "Longitude": 37.59,
    "Altitude (ft)": 3895
  },
  {
    "name": "Arcachon La Teste-de-Buch Airport (France)",
    "Latitude": 44.6,
    "Longitude": -1.11,
    "Altitude (ft)": 49
  },
  {
    "name": "Arcata Eureka Airport (United States)",
    "Latitude": 40.98,
    "Longitude": -124.11,
    "Altitude (ft)": 222
  },
  {
    "name": "Arctic Bay Airport (Canada)",
    "Latitude": 73.01,
    "Longitude": -85.05,
    "Altitude (ft)": 72
  },
  {
    "name": "Arctic Village (United States)",
    "Latitude": 68.11,
    "Longitude": -145.57,
    "Altitude (ft)": 2092
  },
  {
    "name": "Ardabil Airport (Iran)",
    "Latitude": 38.32,
    "Longitude": 48.42,
    "Altitude (ft)": 4317
  },
  {
    "name": "Ardmore Airport (New Zealand)",
    "Latitude": -37.03,
    "Longitude": 174.97,
    "Altitude (ft)": 111
  },
  {
    "name": "Ardmore Municipal Airport (United States)",
    "Latitude": 34.3,
    "Longitude": -97.02,
    "Altitude (ft)": 776
  },
  {
    "name": "Arendal Gullknapp Airport (Norway)",
    "Latitude": 58.52,
    "Longitude": 8.71,
    "Altitude (ft)": 405
  },
  {
    "name": "Arequipa Rodriguez Ballon International Airport (Peru)",
    "Latitude": -16.34,
    "Longitude": -71.58,
    "Altitude (ft)": 8405
  },
  {
    "name": "Argyle Airport (Australia)",
    "Latitude": -16.63,
    "Longitude": 128.45,
    "Altitude (ft)": 522
  },
  {
    "name": "Arica Chacalluta International Airport (Chile)",
    "Latitude": -18.35,
    "Longitude": -70.34,
    "Altitude (ft)": 167
  },
  {
    "name": "Aripuana Airport (Brazil)",
    "Latitude": -10.19,
    "Longitude": -59.46,
    "Altitude (ft)": 738
  },
  {
    "name": "Ariquemes Airport (Brazil)",
    "Latitude": -9.88,
    "Longitude": -63.05,
    "Altitude (ft)": 461
  },
  {
    "name": "Arkhangelsk Talagi Airport (Russia)",
    "Latitude": 64.6,
    "Longitude": 40.72,
    "Altitude (ft)": 62
  },
  {
    "name": "Arlington Municipal Airport (United States)",
    "Latitude": 48.16,
    "Longitude": -122.16,
    "Altitude (ft)": 142
  },
  {
    "name": "Arlington Municipal Airport (United States)",
    "Latitude": 32.66,
    "Longitude": -97.09,
    "Altitude (ft)": 628
  },
  {
    "name": "Armenia El Eden International Airport (Colombia)",
    "Latitude": 4.45,
    "Longitude": -75.77,
    "Altitude (ft)": 3990
  },
  {
    "name": "Armidale Airport (Australia)",
    "Latitude": -30.53,
    "Longitude": 151.62,
    "Altitude (ft)": 3556
  },
  {
    "name": "Artesia Municipal Airport (United States)",
    "Latitude": 32.85,
    "Longitude": -104.47,
    "Altitude (ft)": 3541
  },
  {
    "name": "Arthur's Town Airport (Bahamas)",
    "Latitude": 24.63,
    "Longitude": -75.67,
    "Altitude (ft)": 18
  },
  {
    "name": "Arusha Airport (Tanzania)",
    "Latitude": -3.37,
    "Longitude": 36.63,
    "Altitude (ft)": 4550
  },
  {
    "name": "Arutua Airport (French Polynesia)",
    "Latitude": -15.25,
    "Longitude": -146.62,
    "Altitude (ft)": 9
  },
  {
    "name": "Arviat Airport (Canada)",
    "Latitude": 61.09,
    "Longitude": -94.07,
    "Altitude (ft)": 32
  },
  {
    "name": "Arvidsjaur Airport (Sweden)",
    "Latitude": 65.59,
    "Longitude": 19.28,
    "Altitude (ft)": 1245
  },
  {
    "name": "Arxan Yiershi Airport (China)",
    "Latitude": 47.31,
    "Longitude": 119.91,
    "Altitude (ft)": 2918
  },
  {
    "name": "Asaba International Airport (Nigeria)",
    "Latitude": 6.2,
    "Longitude": 6.67,
    "Altitude (ft)": 242
  },
  {
    "name": "Asahikawa Airport (Japan)",
    "Latitude": 43.67,
    "Longitude": 142.45,
    "Altitude (ft)": 721
  },
  {
    "name": "Ascension Island Airport (Saint Helena)",
    "Latitude": -7.97,
    "Longitude": -14.39,
    "Altitude (ft)": 278
  },
  {
    "name": "Asheville Regional Airport (United States)",
    "Latitude": 35.44,
    "Longitude": -82.54,
    "Altitude (ft)": 2164
  },
  {
    "name": "Ashgabat International Airport (Turkmenistan)",
    "Latitude": 37.99,
    "Longitude": 58.36,
    "Altitude (ft)": 692
  },
  {
    "name": "Asmara International Airport (Eritrea)",
    "Latitude": 15.29,
    "Longitude": 38.91,
    "Altitude (ft)": 7661
  },
  {
    "name": "Asosa Airport (Ethiopia)",
    "Latitude": 10.02,
    "Longitude": 34.59,
    "Altitude (ft)": 5120
  },
  {
    "name": "Aspen Pitkin County Airport (United States)",
    "Latitude": 39.22,
    "Longitude": -106.87,
    "Altitude (ft)": 7838
  },
  {
    "name": "Assaluyeh Persian Gulf Airport (Iran)",
    "Latitude": 27.38,
    "Longitude": 52.74,
    "Altitude (ft)": 40
  },
  {
    "name": "Assiut Airport (Egypt)",
    "Latitude": 27.05,
    "Longitude": 31.01,
    "Altitude (ft)": 772
  },
  {
    "name": "Astana Nursultan Nazarbayev International Airport (Kazakhstan)",
    "Latitude": 51.02,
    "Longitude": 71.47,
    "Altitude (ft)": 1165
  },
  {
    "name": "Astoria Regional Airport (United States)",
    "Latitude": 46.16,
    "Longitude": -123.88,
    "Altitude (ft)": 15
  },
  {
    "name": "Astrakhan Narimanovo Airport (Russia)",
    "Latitude": 46.28,
    "Longitude": 48.01,
    "Altitude (ft)": 65
  },
  {
    "name": "Asturias Airport (Spain)",
    "Latitude": 43.56,
    "Longitude": -6.03,
    "Altitude (ft)": 416
  },
  {
    "name": "Astypalaia Island National Airport (Greece)",
    "Latitude": 36.58,
    "Longitude": 26.38,
    "Altitude (ft)": 165
  },
  {
    "name": "Asuncion Silvio Pettirossi International Airport (Paraguay)",
    "Latitude": -25.24,
    "Longitude": -57.52,
    "Altitude (ft)": 292
  },
  {
    "name": "Aswan International Airport (Egypt)",
    "Latitude": 23.96,
    "Longitude": 32.82,
    "Altitude (ft)": 662
  },
  {
    "name": "Atambua Haliwen Airport (Indonesia)",
    "Latitude": -9.07,
    "Longitude": 124.9,
    "Altitude (ft)": 75
  },
  {
    "name": "Athens Ben Epps Airport (United States)",
    "Latitude": 33.95,
    "Longitude": -83.32,
    "Altitude (ft)": 808
  },
  {
    "name": "Athens Eleftherios Venizelos (Greece)",
    "Latitude": 37.94,
    "Longitude": 23.94,
    "Altitude (ft)": 308
  },
  {
    "name": "Athens Gordon K. Bush Airport (United States)",
    "Latitude": 39.21,
    "Longitude": -82.23,
    "Altitude (ft)": 766
  },
  {
    "name": "Athens McMinn County Airport (United States)",
    "Latitude": 35.4,
    "Longitude": -84.56,
    "Altitude (ft)": 858
  },
  {
    "name": "Atlanta Cobb County Airport (United States)",
    "Latitude": 34.01,
    "Longitude": -84.6,
    "Altitude (ft)": 1040
  },
  {
    "name": "Atlanta DeKalb Peachtree Airport (United States)",
    "Latitude": 33.87,
    "Longitude": -84.3,
    "Altitude (ft)": 1003
  },
  {
    "name": "Atlanta Fulton County Airport (United States)",
    "Latitude": 33.78,
    "Longitude": -84.52,
    "Altitude (ft)": 821
  },
  {
    "name": "Atlanta Hartsfield-Jackson International Airport (United States)",
    "Latitude": 33.64,
    "Longitude": -84.43,
    "Altitude (ft)": 1026
  },
  {
    "name": "Atlanta Regional Airport (United States)",
    "Latitude": 33.36,
    "Longitude": -84.57,
    "Altitude (ft)": 784
  },
  {
    "name": "Atlantic City International Airport (United States)",
    "Latitude": 39.46,
    "Longitude": -74.58,
    "Altitude (ft)": 74
  },
  {
    "name": "Atlantic City Monmouth Executive Airport (United States)",
    "Latitude": 40.19,
    "Longitude": -74.12,
    "Altitude (ft)": 153
  },
  {
    "name": "Atqasuk Airport (United States)",
    "Latitude": 70.5,
    "Longitude": -157.33,
    "Altitude (ft)": 96
  },
  {
    "name": "Attawapiskat Airport (Canada)",
    "Latitude": 52.92,
    "Longitude": -82.43,
    "Altitude (ft)": 31
  },
  {
    "name": "Atuona Airport (French Polynesia)",
    "Latitude": -9.77,
    "Longitude": -139.01,
    "Altitude (ft)": 1481
  },
  {
    "name": "Atwater Castle Airport (United States)",
    "Latitude": 37.38,
    "Longitude": -120.57,
    "Altitude (ft)": 191
  },
  {
    "name": "Atyrau Airport (Kazakhstan)",
    "Latitude": 47.12,
    "Longitude": 51.82,
    "Altitude (ft)": -72
  },
  {
    "name": "Auburn Airport (United States)",
    "Latitude": 44.05,
    "Longitude": -70.28,
    "Altitude (ft)": 288
  },
  {
    "name": "Auburn Municipal Airport (United States)",
    "Latitude": 38.95,
    "Longitude": -121.08,
    "Altitude (ft)": 1539
  },
  {
    "name": "Auburn University Regional Airport (United States)",
    "Latitude": 32.62,
    "Longitude": -85.43,
    "Altitude (ft)": 777
  },
  {
    "name": "Auckland Airport (New Zealand)",
    "Latitude": -37.01,
    "Longitude": 174.79,
    "Altitude (ft)": 23
  },
  {
    "name": "Augsburg Airport (Germany)",
    "Latitude": 48.43,
    "Longitude": 10.93,
    "Altitude (ft)": 1515
  },
  {
    "name": "Augusta Daniel Field Airport (United States)",
    "Latitude": 33.47,
    "Longitude": -82.04,
    "Altitude (ft)": 414
  },
  {
    "name": "Augusta Regional Airport (United States)",
    "Latitude": 33.37,
    "Longitude": -81.96,
    "Altitude (ft)": 144
  },
  {
    "name": "Augusta State Airport (United States)",
    "Latitude": 44.32,
    "Longitude": -69.8,
    "Altitude (ft)": 352
  },
  {
    "name": "Aupaluk Airport (Canada)",
    "Latitude": 59.3,
    "Longitude": -69.6,
    "Altitude (ft)": 117
  },
  {
    "name": "Aurangabad Airport (India)",
    "Latitude": 19.86,
    "Longitude": 75.4,
    "Altitude (ft)": 1911
  },
  {
    "name": "Aurillac Tronquieres Airport (France)",
    "Latitude": 44.9,
    "Longitude": 2.42,
    "Altitude (ft)": 2096
  },
  {
    "name": "Aurukun Airport (Australia)",
    "Latitude": -13.35,
    "Longitude": 141.72,
    "Altitude (ft)": 29
  },
  {
    "name": "Austin Bergstrom International Airport (United States)",
    "Latitude": 30.19,
    "Longitude": -97.67,
    "Altitude (ft)": 542
  },
  {
    "name": "Austin Executive Airport (United States)",
    "Latitude": 30.39,
    "Longitude": -97.56,
    "Altitude (ft)": 620
  },
  {
    "name": "Austin Municipal Airport (United States)",
    "Latitude": 43.66,
    "Longitude": -92.93,
    "Altitude (ft)": 1227
  },
  {
    "name": "Auxerre Branches Airport (France)",
    "Latitude": 47.85,
    "Longitude": 3.5,
    "Altitude (ft)": 523
  },
  {
    "name": "Avalon Catalina Airport (United States)",
    "Latitude": 33.4,
    "Longitude": -118.42,
    "Altitude (ft)": 1602
  },
  {
    "name": "Avarua Rarotonga International Airport (Cook Islands)",
    "Latitude": -21.2,
    "Longitude": -159.8,
    "Altitude (ft)": 19
  },
  {
    "name": "Aviano Air Base (Italy)",
    "Latitude": 46.03,
    "Longitude": 12.6,
    "Altitude (ft)": 410
  },
  {
    "name": "Avignon Caumont Airport (France)",
    "Latitude": 43.91,
    "Longitude": 4.9,
    "Altitude (ft)": 124
  },
  {
    "name": "Avoca Wilkes-Barre/Scranton International Airport (United States)",
    "Latitude": 41.34,
    "Longitude": -75.72,
    "Altitude (ft)": 962
  },
  {
    "name": "Awali Sakhir Air Base (Bahrain)",
    "Latitude": 26.03,
    "Longitude": 50.52,
    "Altitude (ft)": 49
  },
  {
    "name": "Awasa Airport (Ethiopia)",
    "Latitude": 7.09,
    "Longitude": 38.4,
    "Altitude (ft)": 5604
  },
  {
    "name": "Axum Airport (Ethiopia)",
    "Latitude": 14.15,
    "Longitude": 38.77,
    "Altitude (ft)": 6915
  },
  {
    "name": "Ayacucho Airport (Peru)",
    "Latitude": -13.15,
    "Longitude": -74.2,
    "Altitude (ft)": 8917
  },
  {
    "name": "Ayers Rock Airport (Australia)",
    "Latitude": -25.19,
    "Longitude": 130.98,
    "Altitude (ft)": 1626
  },
  {
    "name": "Babo Airport (Indonesia)",
    "Latitude": -2.53,
    "Longitude": 133.44,
    "Altitude (ft)": 10
  },
  {
    "name": "Bacau International Airport (Romania)",
    "Latitude": 46.52,
    "Longitude": 26.91,
    "Altitude (ft)": 607
  },
  {
    "name": "Bacolod City Silay International Airport (Philippines)",
    "Latitude": 10.78,
    "Longitude": 123.02,
    "Altitude (ft)": 25
  },
  {
    "name": "Badajoz Airport (Spain)",
    "Latitude": 38.89,
    "Longitude": -6.82,
    "Altitude (ft)": 609
  },
  {
    "name": "Badin Talhar Airport (Pakistan)",
    "Latitude": 24.84,
    "Longitude": 68.84,
    "Altitude (ft)": 28
  },
  {
    "name": "Badu Island Airport (Australia)",
    "Latitude": -10.15,
    "Longitude": 142.17,
    "Altitude (ft)": 14
  },
  {
    "name": "Bafoussam Airport (Cameroon)",
    "Latitude": 5.54,
    "Longitude": 10.35,
    "Altitude (ft)": 4347
  },
  {
    "name": "Bage Comandante Gustavo Kraemer Airport (Brazil)",
    "Latitude": -31.39,
    "Longitude": -54.11,
    "Altitude (ft)": 600
  },
  {
    "name": "Baghdad International Airport (Iraq)",
    "Latitude": 33.26,
    "Longitude": 44.23,
    "Altitude (ft)": 114
  },
  {
    "name": "Baglung Airport (Nepal)",
    "Latitude": 28.21,
    "Longitude": 83.67,
    "Altitude (ft)": 3320
  },
  {
    "name": "Baguio Loakan Airport (Philippines)",
    "Latitude": 16.38,
    "Longitude": 120.62,
    "Altitude (ft)": 4251
  },
  {
    "name": "Bahawalpur Airport (Pakistan)",
    "Latitude": 29.35,
    "Longitude": 71.72,
    "Altitude (ft)": 392
  },
  {
    "name": "Bahia Blanca Comandante Espora Airport (Argentina)",
    "Latitude": -38.72,
    "Longitude": -62.17,
    "Altitude (ft)": 246
  },
  {
    "name": "Bahia Solano Jose Celestino Mutis Airport (Colombia)",
    "Latitude": 6.2,
    "Longitude": -77.39,
    "Altitude (ft)": 80
  },
  {
    "name": "Bahir Dar Airport (Ethiopia)",
    "Latitude": 11.61,
    "Longitude": 37.32,
    "Altitude (ft)": 5976
  },
  {
    "name": "Bahrain International Airport (Bahrain)",
    "Latitude": 26.27,
    "Longitude": 50.63,
    "Altitude (ft)": 6
  },
  {
    "name": "Baia Mare Airport (Romania)",
    "Latitude": 47.66,
    "Longitude": 23.47,
    "Altitude (ft)": 605
  },
  {
    "name": "Baicheng Chang'an Airport (China)",
    "Latitude": 45.51,
    "Longitude": 123.02,
    "Altitude (ft)": 463
  },
  {
    "name": "Baie Comeau Airport (Canada)",
    "Latitude": 49.13,
    "Longitude": -68.2,
    "Altitude (ft)": 71
  },
  {
    "name": "Bainbridge Decatur County Airport (United States)",
    "Latitude": 30.97,
    "Longitude": -84.64,
    "Altitude (ft)": 134
  },
  {
    "name": "Bairnsdale Airport (Australia)",
    "Latitude": -37.89,
    "Longitude": 147.57,
    "Altitude (ft)": 165
  },
  {
    "name": "Baise Bama Airport (China)",
    "Latitude": 23.72,
    "Longitude": 106.97,
    "Altitude (ft)": 480
  },
  {
    "name": "Baishan Changbaishan Airport (China)",
    "Latitude": 42.09,
    "Longitude": 127.55,
    "Altitude (ft)": 2883
  },
  {
    "name": "Bajawa Turelelo Soa Airport (Indonesia)",
    "Latitude": -8.71,
    "Longitude": 121.06,
    "Altitude (ft)": 4326
  },
  {
    "name": "Bakelalan Airport (Malaysia)",
    "Latitude": 3.97,
    "Longitude": 115.62,
    "Altitude (ft)": 3039
  },
  {
    "name": "Baker City Municipal Airport (United States)",
    "Latitude": 44.84,
    "Longitude": -117.81,
    "Altitude (ft)": 3373
  },
  {
    "name": "Baker Lake Airport (Canada)",
    "Latitude": 64.3,
    "Longitude": -96.08,
    "Altitude (ft)": 59
  },
  {
    "name": "Bakersfield Meadows Field Airport (United States)",
    "Latitude": 35.43,
    "Longitude": -119.06,
    "Altitude (ft)": 510
  },
  {
    "name": "Baku Heydar Aliyev International Airport (Azerbaijan)",
    "Latitude": 40.47,
    "Longitude": 50.05,
    "Altitude (ft)": 10
  },
  {
    "name": "Balboa Panama Pacifico International Airport (Panama)",
    "Latitude": 8.91,
    "Longitude": -79.6,
    "Altitude (ft)": 33
  },
  {
    "name": "Balikpapan Sepinggan Airport (Indonesia)",
    "Latitude": -1.27,
    "Longitude": 116.89,
    "Altitude (ft)": 12
  },
  {
    "name": "Balkhash Airport (Kazakhstan)",
    "Latitude": 46.89,
    "Longitude": 75.0,
    "Altitude (ft)": 1446
  },
  {
    "name": "Ballera Airport (Australia)",
    "Latitude": -27.41,
    "Longitude": 141.81,
    "Altitude (ft)": 385
  },
  {
    "name": "Ballina Byron Gateway Airport (Australia)",
    "Latitude": -28.83,
    "Longitude": 153.56,
    "Altitude (ft)": 7
  },
  {
    "name": "Balmaceda Airport (Chile)",
    "Latitude": -45.92,
    "Longitude": -71.69,
    "Altitude (ft)": 1722
  },
  {
    "name": "Baltimore Martin State Airport (United States)",
    "Latitude": 39.32,
    "Longitude": -76.41,
    "Altitude (ft)": 22
  },
  {
    "name": "Baltimore Washington International Airport (United States)",
    "Latitude": 39.18,
    "Longitude": -76.67,
    "Altitude (ft)": 146
  },
  {
    "name": "Baltrum Airport (Germany)",
    "Latitude": 53.72,
    "Longitude": 7.37,
    "Altitude (ft)": 7
  },
  {
    "name": "Bam Airport (Iran)",
    "Latitude": 29.08,
    "Longitude": 58.45,
    "Altitude (ft)": 3184
  },
  {
    "name": "Bamaga Northern Peninsula Airport (Australia)",
    "Latitude": -10.95,
    "Longitude": 142.46,
    "Altitude (ft)": 34
  },
  {
    "name": "Bamako Senou International Airport (Mali)",
    "Latitude": 12.53,
    "Longitude": -7.95,
    "Altitude (ft)": 1247
  },
  {
    "name": "Bamberg Breitenau Airport (Germany)",
    "Latitude": 49.92,
    "Longitude": 10.92,
    "Altitude (ft)": 816
  },
  {
    "name": "Bamenda Airport (Cameroon)",
    "Latitude": 6.04,
    "Longitude": 10.12,
    "Altitude (ft)": 4065
  },
  {
    "name": "Ban Houeisay Airport (Laos)",
    "Latitude": 20.26,
    "Longitude": 100.44,
    "Altitude (ft)": 1380
  },
  {
    "name": "Banda Aceh International Airport (Indonesia)",
    "Latitude": 5.52,
    "Longitude": 95.42,
    "Altitude (ft)": 65
  },
  {
    "name": "Bandar Abbas International Airport (Iran)",
    "Latitude": 27.22,
    "Longitude": 56.38,
    "Altitude (ft)": 22
  },
  {
    "name": "Bandar Lampung Radin Inten II Airport (Indonesia)",
    "Latitude": -5.24,
    "Longitude": 105.18,
    "Altitude (ft)": 282
  },
  {
    "name": "Bandar Lengeh Airport (Iran)",
    "Latitude": 26.53,
    "Longitude": 54.82,
    "Altitude (ft)": 67
  },
  {
    "name": "Bandung Husein Sastranegara International Airport (Indonesia)",
    "Latitude": -6.9,
    "Longitude": 107.58,
    "Altitude (ft)": 2436
  },
  {
    "name": "Bangkok Don Mueang International Airport (Thailand)",
    "Latitude": 13.91,
    "Longitude": 100.61,
    "Altitude (ft)": 9
  },
  {
    "name": "Bangkok Suvarnabhumi Airport (Thailand)",
    "Latitude": 13.68,
    "Longitude": 100.75,
    "Altitude (ft)": 5
  },
  {
    "name": "Bangor International Airport (United States)",
    "Latitude": 44.81,
    "Longitude": -68.83,
    "Altitude (ft)": 192
  },
  {
    "name": "Bangui Airport (Central African Republic)",
    "Latitude": 4.4,
    "Longitude": 18.52,
    "Altitude (ft)": 1208
  },
  {
    "name": "Banja Luka International Airport (Bosnia And Herzegovina)",
    "Latitude": 44.94,
    "Longitude": 17.3,
    "Altitude (ft)": 400
  },
  {
    "name": "Banjarmasin Syamsudin Noor Airport (Indonesia)",
    "Latitude": -3.44,
    "Longitude": 114.76,
    "Altitude (ft)": 66
  },
  {
    "name": "Banjul International Airport (Gambia)",
    "Latitude": 13.34,
    "Longitude": -16.65,
    "Altitude (ft)": 95
  },
  {
    "name": "Bankstown Airport (Australia)",
    "Latitude": -33.92,
    "Longitude": 150.99,
    "Altitude (ft)": 29
  },
  {
    "name": "Baoshan Yunduan Airport (China)",
    "Latitude": 25.06,
    "Longitude": 99.16,
    "Altitude (ft)": 5514
  },
  {
    "name": "Baotou Erliban Airport (China)",
    "Latitude": 40.56,
    "Longitude": 110.0,
    "Altitude (ft)": 123
  },
  {
    "name": "Barahona Maria Montez International Airport (Dominican Republic)",
    "Latitude": 18.25,
    "Longitude": -71.12,
    "Altitude (ft)": 10
  },
  {
    "name": "Barcaldine Airport (Australia)",
    "Latitude": -23.56,
    "Longitude": 145.3,
    "Altitude (ft)": 878
  },
  {
    "name": "Barcelona El Prat Airport (Spain)",
    "Latitude": 41.3,
    "Longitude": 2.08,
    "Altitude (ft)": 12
  },
  {
    "name": "Barcelona Jose Antonio Anzoategui International Airport (Venezuela)",
    "Latitude": 10.11,
    "Longitude": -64.69,
    "Altitude (ft)": 26
  },
  {
    "name": "Barcelos Airport (Brazil)",
    "Latitude": -0.98,
    "Longitude": -62.91,
    "Altitude (ft)": 112
  },
  {
    "name": "Bardstown Samuels Field Airport (United States)",
    "Latitude": 37.81,
    "Longitude": -85.5,
    "Altitude (ft)": 669
  },
  {
    "name": "Bardufoss Airport (Norway)",
    "Latitude": 69.06,
    "Longitude": 18.54,
    "Altitude (ft)": 252
  },
  {
    "name": "Bareilly Airport (India)",
    "Latitude": 28.42,
    "Longitude": 79.45,
    "Altitude (ft)": 574
  },
  {
    "name": "Bari Karol Wojtyla Airport (Italy)",
    "Latitude": 41.14,
    "Longitude": 16.76,
    "Altitude (ft)": 177
  },
  {
    "name": "Barimunya Airport (Australia)",
    "Latitude": -22.67,
    "Longitude": 119.17,
    "Altitude (ft)": 2091
  },
  {
    "name": "Barinas Airport (Venezuela)",
    "Latitude": 8.62,
    "Longitude": -70.22,
    "Altitude (ft)": 666
  },
  {
    "name": "Bario Airport (Malaysia)",
    "Latitude": 3.74,
    "Longitude": 115.47,
    "Altitude (ft)": 3450
  },
  {
    "name": "Barisal Airport (Bangladesh)",
    "Latitude": 22.8,
    "Longitude": 90.3,
    "Altitude (ft)": 20
  },
  {
    "name": "Barnaul Airport (Russia)",
    "Latitude": 53.36,
    "Longitude": 83.54,
    "Altitude (ft)": 838
  },
  {
    "name": "Barquisimeto Jacinto Lara International Airport (Venezuela)",
    "Latitude": 10.04,
    "Longitude": -69.36,
    "Altitude (ft)": 2042
  },
  {
    "name": "Barra Airport (United Kingdom)",
    "Latitude": 57.02,
    "Longitude": -7.43,
    "Altitude (ft)": 5
  },
  {
    "name": "Barra do Garcas Airport (Brazil)",
    "Latitude": -15.86,
    "Longitude": -52.39,
    "Altitude (ft)": 1147
  },
  {
    "name": "Barrancabermeja Yariguies Airport (Colombia)",
    "Latitude": 7.02,
    "Longitude": -73.81,
    "Altitude (ft)": 412
  },
  {
    "name": "Barranquilla Ernesto Cortissoz International Airport (Colombia)",
    "Latitude": 10.89,
    "Longitude": -74.78,
    "Altitude (ft)": 98
  },
  {
    "name": "Barreiras Airport (Brazil)",
    "Latitude": -12.07,
    "Longitude": -45.01,
    "Altitude (ft)": 2444
  },
  {
    "name": "Barreirinhas Airport (Brazil)",
    "Latitude": -2.76,
    "Longitude": -42.8,
    "Altitude (ft)": 25
  },
  {
    "name": "Barrie Lake Simcoe Regional Airport (Canada)",
    "Latitude": 44.49,
    "Longitude": -79.56,
    "Altitude (ft)": 947
  },
  {
    "name": "Barrow Airport (United States)",
    "Latitude": 71.29,
    "Longitude": -156.77,
    "Altitude (ft)": 52
  },
  {
    "name": "Barrow Island Airport (Australia)",
    "Latitude": -20.86,
    "Longitude": 115.41,
    "Altitude (ft)": 26
  },
  {
    "name": "Barrow-in-Furness Walney Island Airport (United Kingdom)",
    "Latitude": 54.13,
    "Longitude": -3.26,
    "Altitude (ft)": 173
  },
  {
    "name": "Barter Island LRRS Airport (United States)",
    "Latitude": 70.13,
    "Longitude": -143.62,
    "Altitude (ft)": 2
  },
  {
    "name": "Bartlesville Municipal Airport (United States)",
    "Latitude": 36.76,
    "Longitude": -96.01,
    "Altitude (ft)": 711
  },
  {
    "name": "Bartow Municipal Airport (United States)",
    "Latitude": 27.94,
    "Longitude": -81.78,
    "Altitude (ft)": 125
  },
  {
    "name": "Basco Airport (Philippines)",
    "Latitude": 20.45,
    "Longitude": 121.98,
    "Altitude (ft)": 291
  },
  {
    "name": "Basel Mulhouse-Freiburg EuroAirport (France)",
    "Latitude": 47.6,
    "Longitude": 7.53,
    "Altitude (ft)": 885
  },
  {
    "name": "Basra International Airport (Iraq)",
    "Latitude": 30.55,
    "Longitude": 47.66,
    "Altitude (ft)": 11
  },
  {
    "name": "Basseterre Robert L. Bradshaw International Airport (Saint Kitts And Nevis)",
    "Latitude": 17.31,
    "Longitude": -62.72,
    "Altitude (ft)": 170
  },
  {
    "name": "Bastia Poretta Airport (France)",
    "Latitude": 42.55,
    "Longitude": 9.48,
    "Altitude (ft)": 26
  },
  {
    "name": "Bata Airport (Equatorial Guinea)",
    "Latitude": 1.91,
    "Longitude": 9.81,
    "Altitude (ft)": 13
  },
  {
    "name": "Batagay Airport (Russia)",
    "Latitude": 67.65,
    "Longitude": 134.7,
    "Altitude (ft)": 738
  },
  {
    "name": "Batam Hang Nadim Airport (Indonesia)",
    "Latitude": 1.12,
    "Longitude": 104.12,
    "Altitude (ft)": 126
  },
  {
    "name": "Batesville Regional Airport (United States)",
    "Latitude": 35.73,
    "Longitude": -91.65,
    "Altitude (ft)": 465
  },
  {
    "name": "Bathinda Airport (India)",
    "Latitude": 30.27,
    "Longitude": 74.76,
    "Altitude (ft)": 662
  },
  {
    "name": "Bathurst Airport (Canada)",
    "Latitude": 47.63,
    "Longitude": -65.74,
    "Altitude (ft)": 193
  },
  {
    "name": "Bathurst Airport (Australia)",
    "Latitude": -33.4,
    "Longitude": 149.65,
    "Altitude (ft)": 2435
  },
  {
    "name": "Batman Airport (Turkey)",
    "Latitude": 37.93,
    "Longitude": 41.12,
    "Altitude (ft)": 1822
  },
  {
    "name": "Batna International Airport (Algeria)",
    "Latitude": 35.76,
    "Longitude": 6.32,
    "Altitude (ft)": 2697
  },
  {
    "name": "Baton Rouge Metropolitan Airport (United States)",
    "Latitude": 30.53,
    "Longitude": -91.15,
    "Altitude (ft)": 70
  },
  {
    "name": "Batsfjord Airport (Norway)",
    "Latitude": 70.6,
    "Longitude": 29.69,
    "Altitude (ft)": 490
  },
  {
    "name": "Batticaloa International Airport (Sri Lanka)",
    "Latitude": 7.71,
    "Longitude": 81.68,
    "Altitude (ft)": 20
  },
  {
    "name": "Battle Creek Kalamazoo International Airport (United States)",
    "Latitude": 42.31,
    "Longitude": -85.25,
    "Altitude (ft)": 952
  },
  {
    "name": "Battle Mountain Airport (United States)",
    "Latitude": 40.6,
    "Longitude": -116.88,
    "Altitude (ft)": 4531
  },
  {
    "name": "Batu Licin Airport (Indonesia)",
    "Latitude": -3.41,
    "Longitude": 116.0,
    "Altitude (ft)": 3
  },
  {
    "name": "Batumi International Airport (Georgia)",
    "Latitude": 41.61,
    "Longitude": 41.6,
    "Altitude (ft)": 105
  },
  {
    "name": "Bau-Bau Betoambari Airport (Indonesia)",
    "Latitude": -5.49,
    "Longitude": 122.57,
    "Altitude (ft)": 164
  },
  {
    "name": "Baudette International Airport (United States)",
    "Latitude": 48.73,
    "Longitude": -94.61,
    "Altitude (ft)": 1085
  },
  {
    "name": "Bauru Arealva Airport (Brazil)",
    "Latitude": -22.16,
    "Longitude": -49.07,
    "Altitude (ft)": 1949
  },
  {
    "name": "Bayannur Tianjitai Airport (China)",
    "Latitude": 40.93,
    "Longitude": 107.74,
    "Altitude (ft)": 3400
  },
  {
    "name": "Bayreuth Bindlacher Berg Airport (Germany)",
    "Latitude": 49.98,
    "Longitude": 11.64,
    "Altitude (ft)": 1601
  },
  {
    "name": "Baytown Airport (United States)",
    "Latitude": 29.79,
    "Longitude": -94.95,
    "Altitude (ft)": 27
  },
  {
    "name": "Bazhong Enyang Airport (China)",
    "Latitude": 31.74,
    "Longitude": 106.64,
    "Altitude (ft)": 1804
  },
  {
    "name": "Bearskin Lake Airport (Canada)",
    "Latitude": 53.95,
    "Longitude": -90.98,
    "Altitude (ft)": 807
  },
  {
    "name": "Beatrice Municipal Airport (United States)",
    "Latitude": 40.3,
    "Longitude": -96.75,
    "Altitude (ft)": 1324
  },
  {
    "name": "Beaufort County Airport (United States)",
    "Latitude": 32.41,
    "Longitude": -80.64,
    "Altitude (ft)": 7
  },
  {
    "name": "Beaumont Jack Brooks Regional Airport (United States)",
    "Latitude": 29.95,
    "Longitude": -94.02,
    "Altitude (ft)": 15
  },
  {
    "name": "Beaumont Municipal Airport (United States)",
    "Latitude": 30.07,
    "Longitude": -94.22,
    "Altitude (ft)": 32
  },
  {
    "name": "Beaver County Airport (United States)",
    "Latitude": 40.77,
    "Longitude": -80.39,
    "Altitude (ft)": 1253
  },
  {
    "name": "Bechar Boudghene Ben Ali Lotfi Airport (Algeria)",
    "Latitude": 31.65,
    "Longitude": -2.28,
    "Altitude (ft)": 2660
  },
  {
    "name": "Beckley Raleigh County Memorial Airport (United States)",
    "Latitude": 37.78,
    "Longitude": -81.13,
    "Altitude (ft)": 2491
  },
  {
    "name": "Bedford Hanscom Field (United States)",
    "Latitude": 42.47,
    "Longitude": -71.29,
    "Altitude (ft)": 132
  },
  {
    "name": "Bedourie Airport (Australia)",
    "Latitude": -24.35,
    "Longitude": 139.46,
    "Altitude (ft)": 305
  },
  {
    "name": "Beef Island Terrance B. Lettsome Airport (Virgin Islands, British)",
    "Latitude": 18.44,
    "Longitude": -64.54,
    "Altitude (ft)": 16
  },
  {
    "name": "Beida Al Abraq International Airport (Libya)",
    "Latitude": 32.79,
    "Longitude": 21.96,
    "Altitude (ft)": 2157
  },
  {
    "name": "Beihai Fucheng Airport (China)",
    "Latitude": 21.54,
    "Longitude": 109.29,
    "Altitude (ft)": 83
  },
  {
    "name": "Beijing Capital International Airport (China)",
    "Latitude": 40.08,
    "Longitude": 116.59,
    "Altitude (ft)": 116
  },
  {
    "name": "Beijing Daxing International Airport (China)",
    "Latitude": 39.51,
    "Longitude": 116.41,
    "Altitude (ft)": 98
  },
  {
    "name": "Beijing Nanyuan Airport (China)",
    "Latitude": 39.78,
    "Longitude": 116.39,
    "Altitude (ft)": -1
  },
  {
    "name": "Beira Airport (Mozambique)",
    "Latitude": -19.8,
    "Longitude": 34.91,
    "Altitude (ft)": 33
  },
  {
    "name": "Beirut Rafic Hariri International Airport (Lebanon)",
    "Latitude": 33.82,
    "Longitude": 35.49,
    "Altitude (ft)": 87
  },
  {
    "name": "Beja International Airport (Portugal)",
    "Latitude": 38.08,
    "Longitude": -7.93,
    "Altitude (ft)": 636
  },
  {
    "name": "Bejaia Soummam Airport (Algeria)",
    "Latitude": 36.71,
    "Longitude": 5.07,
    "Altitude (ft)": 20
  },
  {
    "name": "Belaya Gora Airport (Russia)",
    "Latitude": 68.56,
    "Longitude": 146.23,
    "Altitude (ft)": 25
  },
  {
    "name": "Belem Val de Cans International Airport (Brazil)",
    "Latitude": -1.38,
    "Longitude": -48.48,
    "Altitude (ft)": 54
  },
  {
    "name": "Belfast City George Best  Airport (United Kingdom)",
    "Latitude": 54.62,
    "Longitude": -5.87,
    "Altitude (ft)": 15
  },
  {
    "name": "Belfast International Airport (United Kingdom)",
    "Latitude": 54.66,
    "Longitude": -6.22,
    "Altitude (ft)": 268
  },
  {
    "name": "Belgaum Airport (India)",
    "Latitude": 15.86,
    "Longitude": 74.62,
    "Altitude (ft)": 2487
  },
  {
    "name": "Belgorod International Airport (Russia)",
    "Latitude": 50.64,
    "Longitude": 36.59,
    "Altitude (ft)": 734
  },
  {
    "name": "Belgrade Nikola Tesla Airport (Serbia)",
    "Latitude": 44.82,
    "Longitude": 20.31,
    "Altitude (ft)": 335
  },
  {
    "name": "Belize City Philip S. W. Goldson International Airport (Belize)",
    "Latitude": 17.54,
    "Longitude": -88.31,
    "Altitude (ft)": 15
  },
  {
    "name": "Belize City Sir Barry Bowen Municipal Airport (Belize)",
    "Latitude": 17.52,
    "Longitude": -88.19,
    "Altitude (ft)": 8
  },
  {
    "name": "Bella Coola Airport (Canada)",
    "Latitude": 52.39,
    "Longitude": -126.6,
    "Altitude (ft)": 117
  },
  {
    "name": "Bellaire Antrim County Airport (United States)",
    "Latitude": 44.99,
    "Longitude": -85.2,
    "Altitude (ft)": 623
  },
  {
    "name": "Belle Ile En Mer Airport (France)",
    "Latitude": 47.33,
    "Longitude": -3.2,
    "Altitude (ft)": 172
  },
  {
    "name": "Belleville MidAmerica St. Louis Airport (United States)",
    "Latitude": 38.55,
    "Longitude": -89.84,
    "Altitude (ft)": 458
  },
  {
    "name": "Bellingham International Airport (United States)",
    "Latitude": 48.79,
    "Longitude": -122.54,
    "Altitude (ft)": 170
  },
  {
    "name": "Belo Horizonte Pampulha Airport (Brazil)",
    "Latitude": -19.85,
    "Longitude": -43.95,
    "Altitude (ft)": 2589
  },
  {
    "name": "Belo Horizonte Tancredo Neves International Airport (Brazil)",
    "Latitude": -19.63,
    "Longitude": -43.97,
    "Altitude (ft)": 2715
  },
  {
    "name": "Beloyarsk Airport (Russia)",
    "Latitude": 63.68,
    "Longitude": 66.68,
    "Altitude (ft)": 82
  },
  {
    "name": "Bembridge Airport (United Kingdom)",
    "Latitude": 50.68,
    "Longitude": -1.11,
    "Altitude (ft)": 53
  },
  {
    "name": "Bemidji Regional Airport (United States)",
    "Latitude": 47.51,
    "Longitude": -94.93,
    "Altitude (ft)": 1391
  },
  {
    "name": "Benalla Airport (Australia)",
    "Latitude": -36.55,
    "Longitude": 146.01,
    "Altitude (ft)": 569
  },
  {
    "name": "Benbecula Airport (United Kingdom)",
    "Latitude": 57.48,
    "Longitude": -7.36,
    "Altitude (ft)": 19
  },
  {
    "name": "Bendigo Airport (Australia)",
    "Latitude": -36.74,
    "Longitude": 144.33,
    "Altitude (ft)": 705
  },
  {
    "name": "Bengaluru Kempegowda International Airport (India)",
    "Latitude": 13.2,
    "Longitude": 77.71,
    "Altitude (ft)": 3002
  },
  {
    "name": "Benghazi Benina International Airport (Libya)",
    "Latitude": 32.1,
    "Longitude": 20.27,
    "Altitude (ft)": 433
  },
  {
    "name": "Bengkulu Fatmawati Soekarno Airport (Indonesia)",
    "Latitude": -3.86,
    "Longitude": 102.34,
    "Altitude (ft)": 50
  },
  {
    "name": "Beni Airport (Democratic Republic Of The Congo)",
    "Latitude": 0.58,
    "Longitude": 29.47,
    "Altitude (ft)": 3491
  },
  {
    "name": "Beni Mellal Airport (Morocco)",
    "Latitude": 32.4,
    "Longitude": -6.32,
    "Altitude (ft)": 1700
  },
  {
    "name": "Benin Airport (Nigeria)",
    "Latitude": 6.32,
    "Longitude": 5.6,
    "Altitude (ft)": 258
  },
  {
    "name": "Benton Harbor Southwest Michigan Regional Airport (United States)",
    "Latitude": 42.13,
    "Longitude": -86.43,
    "Altitude (ft)": 643
  },
  {
    "name": "Bentonville Municipal Airport (United States)",
    "Latitude": 36.35,
    "Longitude": -94.22,
    "Altitude (ft)": 1288
  },
  {
    "name": "Bentonville Northwest Arkansas National Airport (United States)",
    "Latitude": 36.28,
    "Longitude": -94.31,
    "Altitude (ft)": 1288
  },
  {
    "name": "Bequia J.F. Mitchell Airport (Saint Vincent And The Grenadines)",
    "Latitude": 12.99,
    "Longitude": -61.26,
    "Altitude (ft)": 15
  },
  {
    "name": "Berbera Airport (Somalia)",
    "Latitude": 10.39,
    "Longitude": 44.94,
    "Altitude (ft)": 30
  },
  {
    "name": "Berens River Airport (Canada)",
    "Latitude": 52.36,
    "Longitude": -97.02,
    "Altitude (ft)": 716
  },
  {
    "name": "Bergen Flesland Airport (Norway)",
    "Latitude": 60.29,
    "Longitude": 5.22,
    "Altitude (ft)": 170
  },
  {
    "name": "Bergen op Zoom Woensdrecht Air Base Airport (Netherlands)",
    "Latitude": 51.45,
    "Longitude": 4.34,
    "Altitude (ft)": 63
  },
  {
    "name": "Bergerac Dordogne Perigord Airport (France)",
    "Latitude": 44.82,
    "Longitude": 0.52,
    "Altitude (ft)": 171
  },
  {
    "name": "Berlevag Airport (Norway)",
    "Latitude": 70.87,
    "Longitude": 29.03,
    "Altitude (ft)": 42
  },
  {
    "name": "Berlin Brandenburg Airport (Germany)",
    "Latitude": 52.36,
    "Longitude": 13.5,
    "Altitude (ft)": 157
  },
  {
    "name": "Bermuda L.F. Wade International Airport (Bermuda)",
    "Latitude": 32.36,
    "Longitude": -64.68,
    "Altitude (ft)": 18
  },
  {
    "name": "Bern Airport (Switzerland)",
    "Latitude": 46.91,
    "Longitude": 7.5,
    "Altitude (ft)": 1674
  },
  {
    "name": "Bertoua Airport (Cameroon)",
    "Latitude": 4.55,
    "Longitude": 13.73,
    "Altitude (ft)": 2133
  },
  {
    "name": "Beryozovo Airport (Russia)",
    "Latitude": 63.92,
    "Longitude": 65.04,
    "Altitude (ft)": 75
  },
  {
    "name": "Besancon La Veze Airport (France)",
    "Latitude": 47.21,
    "Longitude": 6.08,
    "Altitude (ft)": 1271
  },
  {
    "name": "Beslan Airport (Russia)",
    "Latitude": 43.21,
    "Longitude": 44.61,
    "Altitude (ft)": 1673
  },
  {
    "name": "Bethel Airport (United States)",
    "Latitude": 60.78,
    "Longitude": -161.84,
    "Altitude (ft)": 128
  },
  {
    "name": "Bettles Airport (United States)",
    "Latitude": 66.91,
    "Longitude": -151.53,
    "Altitude (ft)": 647
  },
  {
    "name": "Beverly Regional Airport (United States)",
    "Latitude": 42.58,
    "Longitude": -70.92,
    "Altitude (ft)": 107
  },
  {
    "name": "Beziers Cap d'Agde Airport (France)",
    "Latitude": 43.32,
    "Longitude": 3.35,
    "Altitude (ft)": 56
  },
  {
    "name": "Bhadrapur Airport (Nepal)",
    "Latitude": 26.57,
    "Longitude": 88.08,
    "Altitude (ft)": 300
  },
  {
    "name": "Bhamo Banmaw Airport (Myanmar (Burma))",
    "Latitude": 24.27,
    "Longitude": 97.25,
    "Altitude (ft)": 377
  },
  {
    "name": "Bharatpur Airport (Nepal)",
    "Latitude": 27.68,
    "Longitude": 84.43,
    "Altitude (ft)": 600
  },
  {
    "name": "Bhavnagar Airport (India)",
    "Latitude": 21.75,
    "Longitude": 72.19,
    "Altitude (ft)": 44
  },
  {
    "name": "Bhopal Raja Bhoj Airport (India)",
    "Latitude": 23.29,
    "Longitude": 77.34,
    "Altitude (ft)": 1719
  },
  {
    "name": "Bhubaneswar Biju Patnaik International Airport (India)",
    "Latitude": 20.24,
    "Longitude": 85.82,
    "Altitude (ft)": 138
  },
  {
    "name": "Bhuj Airport (India)",
    "Latitude": 23.29,
    "Longitude": 69.67,
    "Altitude (ft)": 268
  },
  {
    "name": "Biak Frans Kaisiepo Airport (Indonesia)",
    "Latitude": -1.19,
    "Longitude": 136.11,
    "Altitude (ft)": 46
  },
  {
    "name": "Biala Podlaska Airport (Poland)",
    "Latitude": 52.0,
    "Longitude": 23.14,
    "Altitude (ft)": 495
  },
  {
    "name": "Biarritz Pays Basque Airport (France)",
    "Latitude": 43.47,
    "Longitude": -1.52,
    "Altitude (ft)": 223
  },
  {
    "name": "Bidar Airport (India)",
    "Latitude": 17.91,
    "Longitude": 77.49,
    "Altitude (ft)": 2186
  },
  {
    "name": "Bielefeld Airport (Germany)",
    "Latitude": 51.96,
    "Longitude": 8.54,
    "Altitude (ft)": 433
  },
  {
    "name": "Biella Cerrione Airport (Italy)",
    "Latitude": 45.5,
    "Longitude": 8.1,
    "Altitude (ft)": 904
  },
  {
    "name": "Big Trout Lake Airport (Canada)",
    "Latitude": 53.82,
    "Longitude": -89.9,
    "Altitude (ft)": 777
  },
  {
    "name": "Bijie Feixiong Airport (China)",
    "Latitude": 27.27,
    "Longitude": 105.48,
    "Altitude (ft)": 4751
  },
  {
    "name": "Bikaner Nal Airport (India)",
    "Latitude": 28.07,
    "Longitude": 73.21,
    "Altitude (ft)": 750
  },
  {
    "name": "Bilaspur Airport (India)",
    "Latitude": 21.99,
    "Longitude": 82.11,
    "Altitude (ft)": 899
  },
  {
    "name": "Bilbao Airport (Spain)",
    "Latitude": 43.3,
    "Longitude": -2.91,
    "Altitude (ft)": 138
  },
  {
    "name": "Bildudalur Airport (Iceland)",
    "Latitude": 65.64,
    "Longitude": -23.55,
    "Altitude (ft)": 18
  },
  {
    "name": "Billings Logan International Airport (United States)",
    "Latitude": 45.81,
    "Longitude": -108.54,
    "Altitude (ft)": 3652
  },
  {
    "name": "Billund Airport (Denmark)",
    "Latitude": 55.74,
    "Longitude": 9.15,
    "Altitude (ft)": 247
  },
  {
    "name": "Bima Sultan Muhammad Salahudin Airport (Indonesia)",
    "Latitude": -8.54,
    "Longitude": 118.69,
    "Altitude (ft)": 3
  },
  {
    "name": "Bingol Airport (Turkey)",
    "Latitude": 38.86,
    "Longitude": 40.59,
    "Altitude (ft)": 3490
  },
  {
    "name": "Bintulu Airport (Malaysia)",
    "Latitude": 3.12,
    "Longitude": 113.02,
    "Altitude (ft)": 74
  },
  {
    "name": "Biratnagar Airport (Nepal)",
    "Latitude": 26.48,
    "Longitude": 87.26,
    "Altitude (ft)": 236
  },
  {
    "name": "Birch Creek Airport (United States)",
    "Latitude": 66.28,
    "Longitude": -145.82,
    "Altitude (ft)": 435
  },
  {
    "name": "Birdsville Airport (Australia)",
    "Latitude": -25.9,
    "Longitude": 139.34,
    "Altitude (ft)": 157
  },
  {
    "name": "Birjand International Airport (Iran)",
    "Latitude": 32.9,
    "Longitude": 59.27,
    "Altitude (ft)": 4952
  },
  {
    "name": "Birmingham Airport (United Kingdom)",
    "Latitude": 52.45,
    "Longitude": -1.75,
    "Altitude (ft)": 327
  },
  {
    "name": "Birmingham Shuttlesworth International Airport (United States)",
    "Latitude": 33.56,
    "Longitude": -86.75,
    "Altitude (ft)": 650
  },
  {
    "name": "Bisha Domestic Airport (Saudi Arabia)",
    "Latitude": 19.98,
    "Longitude": 42.62,
    "Altitude (ft)": 3887
  },
  {
    "name": "Bishkek Manas International Airport (Kyrgyzstan)",
    "Latitude": 43.06,
    "Longitude": 74.48,
    "Altitude (ft)": 2058
  },
  {
    "name": "Bishop Eastern Sierra Regional Airport (United States)",
    "Latitude": 37.37,
    "Longitude": -118.36,
    "Altitude (ft)": 4124
  },
  {
    "name": "Biskra Airport (Algeria)",
    "Latitude": 34.79,
    "Longitude": 5.74,
    "Altitude (ft)": 289
  },
  {
    "name": "Bismarck Municipal Airport (United States)",
    "Latitude": 46.77,
    "Longitude": -100.76,
    "Altitude (ft)": 1661
  },
  {
    "name": "Bissau Osvaldo Vieira International Airport (Guinea-Bissau)",
    "Latitude": 11.89,
    "Longitude": -15.65,
    "Altitude (ft)": 129
  },
  {
    "name": "Bitburg Airport (Germany)",
    "Latitude": 49.95,
    "Longitude": 6.57,
    "Altitude (ft)": 1223
  },
  {
    "name": "Black Tickle Airport (Canada)",
    "Latitude": 53.47,
    "Longitude": -55.78,
    "Altitude (ft)": 57
  },
  {
    "name": "Blackall Airport (Australia)",
    "Latitude": -24.43,
    "Longitude": 145.43,
    "Altitude (ft)": 928
  },
  {
    "name": "Blackbushe Airport (United Kingdom)",
    "Latitude": 51.32,
    "Longitude": -0.85,
    "Altitude (ft)": 325
  },
  {
    "name": "Blackpool International Airport (United Kingdom)",
    "Latitude": 53.77,
    "Longitude": -3.04,
    "Altitude (ft)": 34
  },
  {
    "name": "Blacksburg Virginia Tech Montgomery Executive Airport (United States)",
    "Latitude": 37.21,
    "Longitude": -80.41,
    "Altitude (ft)": 2132
  },
  {
    "name": "Blagoveshchensk Ignatyevo Airport (Russia)",
    "Latitude": 50.43,
    "Longitude": 127.41,
    "Altitude (ft)": 638
  },
  {
    "name": "Blanding Municipal Airport (United States)",
    "Latitude": 37.58,
    "Longitude": -109.48,
    "Altitude (ft)": 5817
  },
  {
    "name": "Blantyre Chileka International Airport (Malawi)",
    "Latitude": -15.68,
    "Longitude": 34.97,
    "Altitude (ft)": 2555
  },
  {
    "name": "Blenheim Woodbourne Airport (New Zealand)",
    "Latitude": -41.52,
    "Longitude": 173.87,
    "Altitude (ft)": 109
  },
  {
    "name": "Blimbingsari Airport (Indonesia)",
    "Latitude": -8.31,
    "Longitude": 114.34,
    "Altitude (ft)": 110
  },
  {
    "name": "Block Island Airport (United States)",
    "Latitude": 41.17,
    "Longitude": -71.58,
    "Altitude (ft)": 109
  },
  {
    "name": "Bloemfontein Airport (South Africa)",
    "Latitude": -29.09,
    "Longitude": 26.3,
    "Altitude (ft)": 4458
  },
  {
    "name": "Blois Le Breuil Airport (France)",
    "Latitude": 47.68,
    "Longitude": 1.21,
    "Altitude (ft)": 384
  },
  {
    "name": "Blonduos Airport (Iceland)",
    "Latitude": 65.64,
    "Longitude": -20.29,
    "Altitude (ft)": 131
  },
  {
    "name": "Bloomington Central Illinois Regional Airport (United States)",
    "Latitude": 40.48,
    "Longitude": -88.92,
    "Altitude (ft)": 871
  },
  {
    "name": "Bloomington Monroe County Airport (United States)",
    "Latitude": 39.14,
    "Longitude": -86.61,
    "Altitude (ft)": 846
  },
  {
    "name": "Blountville Tri-Cities Regional Airport (United States)",
    "Latitude": 36.48,
    "Longitude": -82.41,
    "Altitude (ft)": 1519
  },
  {
    "name": "Bluefields Airport (Nicaragua)",
    "Latitude": 11.99,
    "Longitude": -83.77,
    "Altitude (ft)": 41
  },
  {
    "name": "Blythe Airport (United States)",
    "Latitude": 33.62,
    "Longitude": -114.72,
    "Altitude (ft)": 391
  },
  {
    "name": "Blytheville Arkansas International Airport (United States)",
    "Latitude": 35.96,
    "Longitude": -89.94,
    "Altitude (ft)": 254
  },
  {
    "name": "Bo Airport (Sierra Leone)",
    "Latitude": 7.95,
    "Longitude": -11.77,
    "Altitude (ft)": 328
  },
  {
    "name": "Boa Vista International Airport (Brazil)",
    "Latitude": 2.85,
    "Longitude": -60.69,
    "Altitude (ft)": 276
  },
  {
    "name": "Boa Vista Rabil Airport (Cape Verde)",
    "Latitude": 16.14,
    "Longitude": -22.89,
    "Altitude (ft)": 69
  },
  {
    "name": "Boca Raton Airport (United States)",
    "Latitude": 26.38,
    "Longitude": -80.11,
    "Altitude (ft)": 13
  },
  {
    "name": "Bocas Del Toro International Airport (Panama)",
    "Latitude": 9.34,
    "Longitude": -82.25,
    "Altitude (ft)": 10
  },
  {
    "name": "Bodaybo Airport (Russia)",
    "Latitude": 57.86,
    "Longitude": 114.24,
    "Altitude (ft)": 919
  },
  {
    "name": "Bodo Airport (Norway)",
    "Latitude": 67.27,
    "Longitude": 14.37,
    "Altitude (ft)": 42
  },
  {
    "name": "Bodrum Milas Airport (Turkey)",
    "Latitude": 37.25,
    "Longitude": 27.66,
    "Altitude (ft)": 21
  },
  {
    "name": "Bogota El Dorado International Airport (Colombia)",
    "Latitude": 4.7,
    "Longitude": -74.14,
    "Altitude (ft)": 8361
  },
  {
    "name": "Boigu Island Airport (Australia)",
    "Latitude": -9.23,
    "Longitude": 142.22,
    "Altitude (ft)": 10
  },
  {
    "name": "Boise Airport (United States)",
    "Latitude": 43.56,
    "Longitude": -116.22,
    "Altitude (ft)": 2871
  },
  {
    "name": "Bojnord Airport (Iran)",
    "Latitude": 37.49,
    "Longitude": 57.31,
    "Altitude (ft)": 3543
  },
  {
    "name": "Bokhtar International Airport (Tajikistan)",
    "Latitude": 37.87,
    "Longitude": 68.86,
    "Altitude (ft)": 1451
  },
  {
    "name": "Bol Brac Airport (Croatia)",
    "Latitude": 43.29,
    "Longitude": 16.68,
    "Altitude (ft)": 1776
  },
  {
    "name": "Bole Alashankou Airport (China)",
    "Latitude": 44.9,
    "Longitude": 82.3,
    "Altitude (ft)": 1253
  },
  {
    "name": "Bologna Guglielmo Marconi Airport (Italy)",
    "Latitude": 44.54,
    "Longitude": 11.29,
    "Altitude (ft)": 123
  },
  {
    "name": "Bolzano Airport (Italy)",
    "Latitude": 46.46,
    "Longitude": 11.33,
    "Altitude (ft)": 789
  },
  {
    "name": "Bonaire Flamingo International Airport (Netherlands)",
    "Latitude": 12.13,
    "Longitude": -68.27,
    "Altitude (ft)": 20
  },
  {
    "name": "Bonaventure Airport (Canada)",
    "Latitude": 48.07,
    "Longitude": -65.46,
    "Altitude (ft)": 123
  },
  {
    "name": "Bonito Airport (Brazil)",
    "Latitude": -21.25,
    "Longitude": -56.45,
    "Altitude (ft)": 1180
  },
  {
    "name": "Bonn Hangelar Airport (Germany)",
    "Latitude": 50.77,
    "Longitude": 7.16,
    "Altitude (ft)": 196
  },
  {
    "name": "Bonnyville Airport (Canada)",
    "Latitude": 54.3,
    "Longitude": -110.74,
    "Altitude (ft)": 1836
  },
  {
    "name": "Boolgeeda Airport (Australia)",
    "Latitude": -22.54,
    "Longitude": 117.28,
    "Altitude (ft)": 1866
  },
  {
    "name": "Bor Podkamennaya Tunguska Airport (Russia)",
    "Latitude": 61.59,
    "Longitude": 89.98,
    "Altitude (ft)": 213
  },
  {
    "name": "Bora Bora Airport (French Polynesia)",
    "Latitude": -16.44,
    "Longitude": -151.75,
    "Altitude (ft)": 10
  },
  {
    "name": "Bordeaux Merignac Airport (France)",
    "Latitude": 44.83,
    "Longitude": -0.72,
    "Altitude (ft)": 166
  },
  {
    "name": "Borger Hutchinson County Airport (United States)",
    "Latitude": 35.7,
    "Longitude": -101.39,
    "Altitude (ft)": 3055
  },
  {
    "name": "Borkum Airport (Germany)",
    "Latitude": 53.6,
    "Longitude": 6.71,
    "Altitude (ft)": 3
  },
  {
    "name": "Borlange Dala Airport (Sweden)",
    "Latitude": 60.42,
    "Longitude": 15.52,
    "Altitude (ft)": 503
  },
  {
    "name": "Bornholm Airport (Denmark)",
    "Latitude": 55.06,
    "Longitude": 14.76,
    "Altitude (ft)": 52
  },
  {
    "name": "Borongan Airport (Philippines)",
    "Latitude": 11.67,
    "Longitude": 125.48,
    "Altitude (ft)": 14
  },
  {
    "name": "Bosaso Airport (Somalia)",
    "Latitude": 11.28,
    "Longitude": 49.15,
    "Altitude (ft)": 6
  },
  {
    "name": "Bost Airport (Afghanistan)",
    "Latitude": 31.56,
    "Longitude": 64.36,
    "Altitude (ft)": 2464
  },
  {
    "name": "Boston Logan International Airport (United States)",
    "Latitude": 42.36,
    "Longitude": -71.01,
    "Altitude (ft)": 20
  },
  {
    "name": "Bouake Airport (Cote D'ivoire (Ivory Coast))",
    "Latitude": 7.74,
    "Longitude": -5.07,
    "Altitude (ft)": 1230
  },
  {
    "name": "Bouarfa Airport (Morocco)",
    "Latitude": 32.51,
    "Longitude": -1.98,
    "Altitude (ft)": 3633
  },
  {
    "name": "Boulder City Municipal Airport (United States)",
    "Latitude": 35.95,
    "Longitude": -114.86,
    "Altitude (ft)": 2203
  },
  {
    "name": "Boulder Municipal Airport (United States)",
    "Latitude": 40.04,
    "Longitude": -105.23,
    "Altitude (ft)": 5288
  },
  {
    "name": "Boulia Airport (Australia)",
    "Latitude": -22.9,
    "Longitude": 139.9,
    "Altitude (ft)": 542
  },
  {
    "name": "Bountiful Skypark Airport (United States)",
    "Latitude": 40.87,
    "Longitude": -111.93,
    "Altitude (ft)": 4234
  },
  {
    "name": "Bourg-en-Bresse Ceyzeriat Airport (France)",
    "Latitude": 46.2,
    "Longitude": 5.29,
    "Altitude (ft)": 857
  },
  {
    "name": "Bourges Airport (France)",
    "Latitude": 47.06,
    "Longitude": 2.38,
    "Altitude (ft)": 529
  },
  {
    "name": "Bourke Airport (Australia)",
    "Latitude": -30.04,
    "Longitude": 145.95,
    "Altitude (ft)": 352
  },
  {
    "name": "Bournemouth Airport (United Kingdom)",
    "Latitude": 50.78,
    "Longitude": -1.84,
    "Altitude (ft)": 38
  },
  {
    "name": "Bovanenkovo Airport (Russia)",
    "Latitude": 70.32,
    "Longitude": 68.33,
    "Altitude (ft)": 23
  },
  {
    "name": "Bowling Green Warren County Regional Airport (United States)",
    "Latitude": 36.96,
    "Longitude": -86.42,
    "Altitude (ft)": 547
  },
  {
    "name": "Bozeman Yellowstone International Airport (United States)",
    "Latitude": 45.78,
    "Longitude": -111.15,
    "Altitude (ft)": 4473
  },
  {
    "name": "Bradford Regional Airport (United States)",
    "Latitude": 41.8,
    "Longitude": -78.64,
    "Altitude (ft)": 2143
  },
  {
    "name": "Braga Airport (Portugal)",
    "Latitude": 41.59,
    "Longitude": -8.45,
    "Altitude (ft)": 247
  },
  {
    "name": "Braganca Airport (Portugal)",
    "Latitude": 41.86,
    "Longitude": -6.71,
    "Altitude (ft)": 2241
  },
  {
    "name": "Brainerd Lakes Regional Airport (United States)",
    "Latitude": 46.4,
    "Longitude": -94.14,
    "Altitude (ft)": 1226
  },
  {
    "name": "Brandon Municipal Airport (Canada)",
    "Latitude": 49.91,
    "Longitude": -99.95,
    "Altitude (ft)": 1343
  },
  {
    "name": "Branson Airport (United States)",
    "Latitude": 36.53,
    "Longitude": -93.2,
    "Altitude (ft)": 1302
  },
  {
    "name": "Brasilia International Airport (Brazil)",
    "Latitude": -15.87,
    "Longitude": -47.92,
    "Altitude (ft)": 3479
  },
  {
    "name": "Brasov Airport (Romania)",
    "Latitude": 45.71,
    "Longitude": 25.52,
    "Altitude (ft)": 1738
  },
  {
    "name": "Bratislava M. R. Stefanik Airport (Slovakia)",
    "Latitude": 48.17,
    "Longitude": 17.21,
    "Altitude (ft)": 436
  },
  {
    "name": "Bratsk Airport (Russia)",
    "Latitude": 56.37,
    "Longitude": 101.7,
    "Altitude (ft)": 1610
  },
  {
    "name": "Braunschweig Airport (Germany)",
    "Latitude": 52.32,
    "Longitude": 10.56,
    "Altitude (ft)": 295
  },
  {
    "name": "Brawley Municipal Airport (United States)",
    "Latitude": 32.99,
    "Longitude": -115.52,
    "Altitude (ft)": -128
  },
  {
    "name": "Brazzaville Maya Maya Airport (Congo)",
    "Latitude": -4.25,
    "Longitude": 15.25,
    "Altitude (ft)": 1048
  },
  {
    "name": "Breda International Airport (Netherlands)",
    "Latitude": 51.55,
    "Longitude": 4.55,
    "Altitude (ft)": 28
  },
  {
    "name": "Brekstad Orland Airport (Norway)",
    "Latitude": 63.7,
    "Longitude": 9.6,
    "Altitude (ft)": 28
  },
  {
    "name": "Bremen Airport (Germany)",
    "Latitude": 53.05,
    "Longitude": 8.79,
    "Altitude (ft)": 14
  },
  {
    "name": "Bremerton National Airport (United States)",
    "Latitude": 47.49,
    "Longitude": -122.76,
    "Altitude (ft)": 439
  },
  {
    "name": "Brescia Montichiari Airport (Italy)",
    "Latitude": 45.43,
    "Longitude": 10.33,
    "Altitude (ft)": 356
  },
  {
    "name": "Bresso Airport (Italy)",
    "Latitude": 45.54,
    "Longitude": 9.2,
    "Altitude (ft)": 474
  },
  {
    "name": "Brest Airport (Belarus)",
    "Latitude": 52.12,
    "Longitude": 23.88,
    "Altitude (ft)": 469
  },
  {
    "name": "Brest Bretagne Airport (France)",
    "Latitude": 48.45,
    "Longitude": -4.42,
    "Altitude (ft)": 325
  },
  {
    "name": "Breves Airport (Brazil)",
    "Latitude": -1.64,
    "Longitude": -50.44,
    "Altitude (ft)": 47
  },
  {
    "name": "Brevig Mission Airport (United States)",
    "Latitude": 65.33,
    "Longitude": -166.47,
    "Altitude (ft)": 38
  },
  {
    "name": "Bria Airport (Central African Republic)",
    "Latitude": 6.53,
    "Longitude": 21.99,
    "Altitude (ft)": 1975
  },
  {
    "name": "Bridgetown Grantley Adams International Airport (Barbados)",
    "Latitude": 13.07,
    "Longitude": -59.49,
    "Altitude (ft)": 169
  },
  {
    "name": "Brigham City Airport (United States)",
    "Latitude": 41.55,
    "Longitude": -112.06,
    "Altitude (ft)": 4226
  },
  {
    "name": "Brighton City Shoreham Airport (United Kingdom)",
    "Latitude": 50.84,
    "Longitude": -0.3,
    "Altitude (ft)": 7
  },
  {
    "name": "Brindisi Airport (Italy)",
    "Latitude": 40.66,
    "Longitude": 17.95,
    "Altitude (ft)": 47
  },
  {
    "name": "Brisbane Airport (Australia)",
    "Latitude": -27.38,
    "Longitude": 153.12,
    "Altitude (ft)": 13
  },
  {
    "name": "Bristol Airport (United Kingdom)",
    "Latitude": 51.38,
    "Longitude": -2.72,
    "Altitude (ft)": 622
  },
  {
    "name": "Brive Souillac Airport (France)",
    "Latitude": 45.04,
    "Longitude": 1.49,
    "Altitude (ft)": 1016
  },
  {
    "name": "Brno Turany Airport (Czechia)",
    "Latitude": 49.15,
    "Longitude": 16.69,
    "Altitude (ft)": 778
  },
  {
    "name": "Brochet Airport (Canada)",
    "Latitude": 57.89,
    "Longitude": -101.68,
    "Altitude (ft)": 1136
  },
  {
    "name": "Broken Bow Municipal Airport (United States)",
    "Latitude": 41.44,
    "Longitude": -99.64,
    "Altitude (ft)": 2527
  },
  {
    "name": "Broken Hill Airport (Australia)",
    "Latitude": -32.0,
    "Longitude": 141.47,
    "Altitude (ft)": 958
  },
  {
    "name": "Bromont Airport (Canada)",
    "Latitude": 45.29,
    "Longitude": -72.74,
    "Altitude (ft)": 375
  },
  {
    "name": "Bronnoysund Airport (Norway)",
    "Latitude": 65.46,
    "Longitude": 12.22,
    "Altitude (ft)": 25
  },
  {
    "name": "Brookings Airport (United States)",
    "Latitude": 44.3,
    "Longitude": -96.81,
    "Altitude (ft)": 1648
  },
  {
    "name": "Broome International Airport (Australia)",
    "Latitude": -17.94,
    "Longitude": 122.23,
    "Altitude (ft)": 56
  },
  {
    "name": "Brownsville South Padre Island International Airport (United States)",
    "Latitude": 25.91,
    "Longitude": -97.43,
    "Altitude (ft)": 22
  },
  {
    "name": "Brownwood Regional Airport (United States)",
    "Latitude": 31.79,
    "Longitude": -98.96,
    "Altitude (ft)": 1387
  },
  {
    "name": "Brunei International Airport (Brunei)",
    "Latitude": 4.94,
    "Longitude": 114.93,
    "Altitude (ft)": 73
  },
  {
    "name": "Brunswick Golden Isles Airport (United States)",
    "Latitude": 31.26,
    "Longitude": -81.47,
    "Altitude (ft)": 26
  },
  {
    "name": "Brunswick Malcolm McKinnon Airport (United States)",
    "Latitude": 31.15,
    "Longitude": -81.39,
    "Altitude (ft)": 19
  },
  {
    "name": "Brussels Airport (Belgium)",
    "Latitude": 50.9,
    "Longitude": 4.48,
    "Altitude (ft)": 184
  },
  {
    "name": "Brussels South Charleroi Airport (Belgium)",
    "Latitude": 50.46,
    "Longitude": 4.45,
    "Altitude (ft)": 614
  },
  {
    "name": "Bryan Coulter Field (United States)",
    "Latitude": 30.72,
    "Longitude": -96.33,
    "Altitude (ft)": 367
  },
  {
    "name": "Bryansk International Airport (Russia)",
    "Latitude": 53.21,
    "Longitude": 34.18,
    "Altitude (ft)": 663
  },
  {
    "name": "Bucaramanga Palonegro International Airport (Colombia)",
    "Latitude": 7.13,
    "Longitude": -73.18,
    "Altitude (ft)": 3902
  },
  {
    "name": "Bucharest Aurel Vlaicu Airport (Romania)",
    "Latitude": 44.5,
    "Longitude": 26.1,
    "Altitude (ft)": 297
  },
  {
    "name": "Bucharest Henri Coanda International Airport (Romania)",
    "Latitude": 44.57,
    "Longitude": 26.1,
    "Altitude (ft)": 314
  },
  {
    "name": "Buckland Airport (United States)",
    "Latitude": 65.98,
    "Longitude": -161.13,
    "Altitude (ft)": 24
  },
  {
    "name": "Budapest Budaors Airport (Hungary)",
    "Latitude": 47.45,
    "Longitude": 18.98,
    "Altitude (ft)": 440
  },
  {
    "name": "Budapest Ferenc Liszt International Airport (Hungary)",
    "Latitude": 47.44,
    "Longitude": 19.26,
    "Altitude (ft)": 495
  },
  {
    "name": "Budel Kempen Airport (Netherlands)",
    "Latitude": 51.26,
    "Longitude": 5.6,
    "Altitude (ft)": 114
  },
  {
    "name": "Buenaventura Gerardo Tobar Lopez Airport (Colombia)",
    "Latitude": 3.82,
    "Longitude": -76.99,
    "Altitude (ft)": 48
  },
  {
    "name": "Buenos Aires Jorge Newbery Airport (Argentina)",
    "Latitude": -34.56,
    "Longitude": -58.42,
    "Altitude (ft)": 18
  },
  {
    "name": "Buenos Aires Ministro Pistarini International Airport (Argentina)",
    "Latitude": -34.82,
    "Longitude": -58.54,
    "Altitude (ft)": 67
  },
  {
    "name": "Buffalo Narrows Airport (Canada)",
    "Latitude": 55.84,
    "Longitude": -108.42,
    "Altitude (ft)": 1444
  },
  {
    "name": "Buffalo Niagara International Airport (United States)",
    "Latitude": 42.94,
    "Longitude": -78.73,
    "Altitude (ft)": 727
  },
  {
    "name": "Bugulma Airport (Russia)",
    "Latitude": 54.63,
    "Longitude": 52.79,
    "Altitude (ft)": 991
  },
  {
    "name": "Bujumbura International Airport (Burundi)",
    "Latitude": -3.32,
    "Longitude": 29.32,
    "Altitude (ft)": 2582
  },
  {
    "name": "Buka Airport (Papua New Guinea)",
    "Latitude": -5.42,
    "Longitude": 154.67,
    "Altitude (ft)": 11
  },
  {
    "name": "Bukhara International Airport (Uzbekistan)",
    "Latitude": 39.78,
    "Longitude": 64.48,
    "Altitude (ft)": 751
  },
  {
    "name": "Bukoba Airport (Tanzania)",
    "Latitude": -1.33,
    "Longitude": 31.82,
    "Altitude (ft)": 3746
  },
  {
    "name": "Bulawayo Joshua Mqabuko Nkomo International Airport (Zimbabwe)",
    "Latitude": -20.02,
    "Longitude": 28.62,
    "Altitude (ft)": 4359
  },
  {
    "name": "Bullhead International Airport (United States)",
    "Latitude": 35.16,
    "Longitude": -114.56,
    "Altitude (ft)": 701
  },
  {
    "name": "Bunbury Airport (Australia)",
    "Latitude": -33.38,
    "Longitude": 115.68,
    "Altitude (ft)": 53
  },
  {
    "name": "Bundaberg Airport (Australia)",
    "Latitude": -24.9,
    "Longitude": 152.32,
    "Altitude (ft)": 107
  },
  {
    "name": "Bunia Airport (Democratic Republic Of The Congo)",
    "Latitude": 1.57,
    "Longitude": 30.22,
    "Altitude (ft)": 4045
  },
  {
    "name": "Bunnell Flagler County Airport (United States)",
    "Latitude": 29.47,
    "Longitude": -81.21,
    "Altitude (ft)": 33
  },
  {
    "name": "Buochs Airport (Switzerland)",
    "Latitude": 46.97,
    "Longitude": 8.4,
    "Altitude (ft)": 1475
  },
  {
    "name": "Buol Airport (Indonesia)",
    "Latitude": 1.1,
    "Longitude": 121.41,
    "Altitude (ft)": 27
  },
  {
    "name": "Buon Ma Thuot Airport (Vietnam)",
    "Latitude": 12.67,
    "Longitude": 108.12,
    "Altitude (ft)": 1729
  },
  {
    "name": "Burbank Bob Hope Airport (United States)",
    "Latitude": 34.2,
    "Longitude": -118.36,
    "Altitude (ft)": 778
  },
  {
    "name": "Burgas Airport (Bulgaria)",
    "Latitude": 42.57,
    "Longitude": 27.52,
    "Altitude (ft)": 135
  },
  {
    "name": "Burgos Airport (Spain)",
    "Latitude": 42.36,
    "Longitude": -3.61,
    "Altitude (ft)": 2963
  },
  {
    "name": "Buriram Airport (Thailand)",
    "Latitude": 15.23,
    "Longitude": 103.25,
    "Altitude (ft)": 590
  },
  {
    "name": "Burley Municipal Airport (United States)",
    "Latitude": 42.54,
    "Longitude": -113.77,
    "Altitude (ft)": 4150
  },
  {
    "name": "Burlington Alamance Regional Airport (United States)",
    "Latitude": 36.05,
    "Longitude": -79.47,
    "Altitude (ft)": 616
  },
  {
    "name": "Burlington International Airport (United States)",
    "Latitude": 44.47,
    "Longitude": -73.15,
    "Altitude (ft)": 335
  },
  {
    "name": "Burlington Municipal Airport (United States)",
    "Latitude": 42.69,
    "Longitude": -88.3,
    "Altitude (ft)": 780
  },
  {
    "name": "Burlington Southeast Iowa Regional Airport (United States)",
    "Latitude": 40.79,
    "Longitude": -91.12,
    "Altitude (ft)": 698
  },
  {
    "name": "Burlington/Mount Vernon Skagit Regional Airport (United States)",
    "Latitude": 48.47,
    "Longitude": -122.42,
    "Altitude (ft)": 118
  },
  {
    "name": "Burnie Airport (Australia)",
    "Latitude": -41.0,
    "Longitude": 145.73,
    "Altitude (ft)": 62
  },
  {
    "name": "Burns Lake Airport (Canada)",
    "Latitude": 54.38,
    "Longitude": -125.95,
    "Altitude (ft)": 2350
  },
  {
    "name": "Burqin Kanas Airport (China)",
    "Latitude": 48.22,
    "Longitude": 87.0,
    "Altitude (ft)": 3898
  },
  {
    "name": "Bursa Yenisehir Airport (Turkey)",
    "Latitude": 40.26,
    "Longitude": 29.56,
    "Altitude (ft)": 760
  },
  {
    "name": "Busan Gimhae International Airport (South Korea)",
    "Latitude": 35.18,
    "Longitude": 128.94,
    "Altitude (ft)": 6
  },
  {
    "name": "Bushehr Airport (Iran)",
    "Latitude": 28.94,
    "Longitude": 50.83,
    "Altitude (ft)": 68
  },
  {
    "name": "Busselton Regional Airport (Australia)",
    "Latitude": -33.69,
    "Longitude": 115.4,
    "Altitude (ft)": 55
  },
  {
    "name": "Busuanga Airport (Philippines)",
    "Latitude": 12.12,
    "Longitude": 120.1,
    "Altitude (ft)": 148
  },
  {
    "name": "Butaritari Airport (Kiribati)",
    "Latitude": 3.09,
    "Longitude": 172.81,
    "Altitude (ft)": 20
  },
  {
    "name": "Butler Regional Airport (United States)",
    "Latitude": 40.78,
    "Longitude": -79.95,
    "Altitude (ft)": 1248
  },
  {
    "name": "Butte Bert Mooney Airport (United States)",
    "Latitude": 45.95,
    "Longitude": -112.49,
    "Altitude (ft)": 5550
  },
  {
    "name": "Butuan Bancasi Airport (Philippines)",
    "Latitude": 8.95,
    "Longitude": 125.48,
    "Altitude (ft)": 141
  },
  {
    "name": "Bydgoszcz Ignacy Jan Paderewski Airport (Poland)",
    "Latitude": 53.1,
    "Longitude": 17.98,
    "Altitude (ft)": 235
  },
  {
    "name": "Ca Mau Airport (Vietnam)",
    "Latitude": 9.18,
    "Longitude": 105.18,
    "Altitude (ft)": 6
  },
  {
    "name": "Cabinda Airport (Angola)",
    "Latitude": -5.6,
    "Longitude": 12.19,
    "Altitude (ft)": 66
  },
  {
    "name": "Cabo Frio International Airport (Brazil)",
    "Latitude": -22.92,
    "Longitude": -42.07,
    "Altitude (ft)": 14
  },
  {
    "name": "Cabo San Lucas International Airport (Mexico)",
    "Latitude": 22.95,
    "Longitude": -109.94,
    "Altitude (ft)": 670
  },
  {
    "name": "Cacoal Airport (Brazil)",
    "Latitude": -11.5,
    "Longitude": -61.45,
    "Altitude (ft)": 778
  },
  {
    "name": "Cadillac Wexford County Airport (United States)",
    "Latitude": 44.28,
    "Longitude": -85.42,
    "Altitude (ft)": 1303
  },
  {
    "name": "Caen Carpiquet Airport (France)",
    "Latitude": 49.17,
    "Longitude": -0.45,
    "Altitude (ft)": 256
  },
  {
    "name": "Caernarfon Airport (United Kingdom)",
    "Latitude": 53.1,
    "Longitude": -4.34,
    "Altitude (ft)": 14
  },
  {
    "name": "Cagayan de Oro Laguindingan Airport (Philippines)",
    "Latitude": 8.61,
    "Longitude": 124.46,
    "Altitude (ft)": 190
  },
  {
    "name": "Cagliari Elmas Airport (Italy)",
    "Latitude": 39.25,
    "Longitude": 9.05,
    "Altitude (ft)": 13
  },
  {
    "name": "Cahors Lalbenque Airport (France)",
    "Latitude": 44.35,
    "Longitude": 1.48,
    "Altitude (ft)": 882
  },
  {
    "name": "Cairns Airport (Australia)",
    "Latitude": -16.89,
    "Longitude": 145.76,
    "Altitude (ft)": 10
  },
  {
    "name": "Cairo Capital International Airport (Egypt)",
    "Latitude": 30.07,
    "Longitude": 31.83,
    "Altitude (ft)": 760
  },
  {
    "name": "Cairo International Airport (Egypt)",
    "Latitude": 30.12,
    "Longitude": 31.41,
    "Altitude (ft)": 382
  },
  {
    "name": "Cajamarca Airport (Peru)",
    "Latitude": -7.14,
    "Longitude": -78.49,
    "Altitude (ft)": 8781
  },
  {
    "name": "Calabar Margaret Ekpo International Airport (Nigeria)",
    "Latitude": 4.98,
    "Longitude": 8.35,
    "Altitude (ft)": 210
  },
  {
    "name": "Calais Dunkerque Airport (France)",
    "Latitude": 50.96,
    "Longitude": 1.95,
    "Altitude (ft)": 10
  },
  {
    "name": "Calama El Loa Airport (Chile)",
    "Latitude": -22.5,
    "Longitude": -68.9,
    "Altitude (ft)": 7543
  },
  {
    "name": "Calbayog Airport (Philippines)",
    "Latitude": 12.08,
    "Longitude": 124.54,
    "Altitude (ft)": 12
  },
  {
    "name": "Caldas Novas Airport (Brazil)",
    "Latitude": -17.72,
    "Longitude": -48.61,
    "Altitude (ft)": 2247
  },
  {
    "name": "Caldwell Essex County Airport (United States)",
    "Latitude": 40.88,
    "Longitude": -74.28,
    "Altitude (ft)": 171
  },
  {
    "name": "Calexico International Airport (United States)",
    "Latitude": 32.67,
    "Longitude": -115.52,
    "Altitude (ft)": 1
  },
  {
    "name": "Calgary International Airport (Canada)",
    "Latitude": 51.11,
    "Longitude": -114.02,
    "Altitude (ft)": 3557
  },
  {
    "name": "Cali Alfonso Bonilla Aragon International Airport (Colombia)",
    "Latitude": 3.54,
    "Longitude": -76.38,
    "Altitude (ft)": 3162
  },
  {
    "name": "Caloundra Airport (Australia)",
    "Latitude": -26.8,
    "Longitude": 153.1,
    "Altitude (ft)": 12
  },
  {
    "name": "Calvi Sainte-Catherine Airport (France)",
    "Latitude": 42.52,
    "Longitude": 8.79,
    "Altitude (ft)": 209
  },
  {
    "name": "Camaguey Ignacio Agramonte International Airport (Cuba)",
    "Latitude": 21.42,
    "Longitude": -77.85,
    "Altitude (ft)": 413
  },
  {
    "name": "Camarillo Airport (United States)",
    "Latitude": 34.21,
    "Longitude": -119.09,
    "Altitude (ft)": 69
  },
  {
    "name": "Cambridge Airport (United Kingdom)",
    "Latitude": 52.21,
    "Longitude": 0.17,
    "Altitude (ft)": 47
  },
  {
    "name": "Cambridge Bay Airport (Canada)",
    "Latitude": 69.11,
    "Longitude": -105.14,
    "Altitude (ft)": 90
  },
  {
    "name": "Cambridge Dorchester Airport (United States)",
    "Latitude": 38.54,
    "Longitude": -76.03,
    "Altitude (ft)": 20
  },
  {
    "name": "Camden Airport (Australia)",
    "Latitude": -34.04,
    "Longitude": 150.69,
    "Altitude (ft)": 230
  },
  {
    "name": "Camp Springs Joint Base Andrews (United States)",
    "Latitude": 38.81,
    "Longitude": -76.87,
    "Altitude (ft)": 262
  },
  {
    "name": "Campbell River Airport (Canada)",
    "Latitude": 49.95,
    "Longitude": -125.27,
    "Altitude (ft)": 346
  },
  {
    "name": "Campbeltown Airport (United Kingdom)",
    "Latitude": 55.43,
    "Longitude": -5.68,
    "Altitude (ft)": 42
  },
  {
    "name": "Campeche International Airport (Mexico)",
    "Latitude": 19.82,
    "Longitude": -90.5,
    "Altitude (ft)": 34
  },
  {
    "name": "Campina Grande Airport (Brazil)",
    "Latitude": -7.27,
    "Longitude": -35.9,
    "Altitude (ft)": 1646
  },
  {
    "name": "Campinas Viracopos International Airport (Brazil)",
    "Latitude": -23.01,
    "Longitude": -47.13,
    "Altitude (ft)": 2170
  },
  {
    "name": "Campo Grande International Airport (Brazil)",
    "Latitude": -20.47,
    "Longitude": -54.67,
    "Altitude (ft)": 1833
  },
  {
    "name": "Campo Mourao Airport (Brazil)",
    "Latitude": -24.01,
    "Longitude": -52.36,
    "Altitude (ft)": 1854
  },
  {
    "name": "Campos dos Goytacazes Bartolomeu Lysandro Airport (Brazil)",
    "Latitude": -21.7,
    "Longitude": -41.3,
    "Altitude (ft)": 57
  },
  {
    "name": "Can Tho International Airport (Vietnam)",
    "Latitude": 10.08,
    "Longitude": 105.71,
    "Altitude (ft)": 9
  },
  {
    "name": "Canaima Airport (Venezuela)",
    "Latitude": 6.23,
    "Longitude": -62.85,
    "Altitude (ft)": 1317
  },
  {
    "name": "Canakkale Airport (Turkey)",
    "Latitude": 40.14,
    "Longitude": 26.43,
    "Altitude (ft)": 23
  },
  {
    "name": "Canberra International Airport (Australia)",
    "Latitude": -35.31,
    "Longitude": 149.2,
    "Altitude (ft)": 1886
  },
  {
    "name": "Cancun International Airport (Mexico)",
    "Latitude": 21.04,
    "Longitude": -86.88,
    "Altitude (ft)": 20
  },
  {
    "name": "Canela Airport (Brazil)",
    "Latitude": -29.37,
    "Longitude": -50.83,
    "Altitude (ft)": 2746
  },
  {
    "name": "Cangyuan Washan Airport (China)",
    "Latitude": 23.27,
    "Longitude": 99.37,
    "Altitude (ft)": -1
  },
  {
    "name": "Cannes Mandelieu Airport (France)",
    "Latitude": 43.55,
    "Longitude": 6.95,
    "Altitude (ft)": 13
  },
  {
    "name": "Canouan Airport (Saint Vincent And The Grenadines)",
    "Latitude": 12.7,
    "Longitude": -61.34,
    "Altitude (ft)": 11
  },
  {
    "name": "Canton Cherokee County Regional Airport (United States)",
    "Latitude": 34.31,
    "Longitude": -84.42,
    "Altitude (ft)": 1219
  },
  {
    "name": "Cap Skirring Airport (Senegal)",
    "Latitude": 12.39,
    "Longitude": -16.75,
    "Altitude (ft)": 66
  },
  {
    "name": "Cap-Haitien International Airport (Haiti)",
    "Latitude": 19.73,
    "Longitude": -72.19,
    "Altitude (ft)": 10
  },
  {
    "name": "Cape Dorset Airport (Canada)",
    "Latitude": 64.23,
    "Longitude": -76.53,
    "Altitude (ft)": 164
  },
  {
    "name": "Cape Girardeau Regional Airport (United States)",
    "Latitude": 37.23,
    "Longitude": -89.57,
    "Altitude (ft)": 341
  },
  {
    "name": "Cape May County (United States)",
    "Latitude": 39.01,
    "Longitude": -74.91,
    "Altitude (ft)": 21
  },
  {
    "name": "Cape Town International Airport (South Africa)",
    "Latitude": -33.96,
    "Longitude": 18.6,
    "Altitude (ft)": 151
  },
  {
    "name": "Caracas Simon Bolivar International Airport (Venezuela)",
    "Latitude": 10.6,
    "Longitude": -66.99,
    "Altitude (ft)": 235
  },
  {
    "name": "Carajas Airport (Brazil)",
    "Latitude": -6.11,
    "Longitude": -50.0,
    "Altitude (ft)": 2037
  },
  {
    "name": "Caransebes Airport (Romania)",
    "Latitude": 45.42,
    "Longitude": 22.25,
    "Altitude (ft)": 828
  },
  {
    "name": "Carauari Airport (Brazil)",
    "Latitude": -4.87,
    "Longitude": -66.9,
    "Altitude (ft)": 355
  },
  {
    "name": "Carbondale Murphysboro Southern Illinois Airport (United States)",
    "Latitude": 37.78,
    "Longitude": -89.25,
    "Altitude (ft)": 411
  },
  {
    "name": "Carcassonne Airport (France)",
    "Latitude": 43.22,
    "Longitude": 2.31,
    "Altitude (ft)": 433
  },
  {
    "name": "Cardiff Airport (United Kingdom)",
    "Latitude": 51.4,
    "Longitude": -3.34,
    "Altitude (ft)": 220
  },
  {
    "name": "Carlisle Lake District Airport (United Kingdom)",
    "Latitude": 54.94,
    "Longitude": -2.81,
    "Altitude (ft)": 190
  },
  {
    "name": "Carlsbad Cavern City Air Terminal Airport (United States)",
    "Latitude": 32.34,
    "Longitude": -104.26,
    "Altitude (ft)": 3295
  },