[
  {
    "name": "Auckland Airport (New Zealand)",
    "Latitude": -37.01,
    "Longitude": 174.79,
    "Altitude (ft)": 23
  },
  {
    "name": "Colorado Springs Airport (United States)",
    "Latitude": 38.81,
    "Longitude": -104.7,
    "Altitude (ft)": 6187
  },
  {
    "name": "Gold Coast Airport (Australia)",
    "Latitude": -28.16,
    "Longitude": 153.5,
    "Altitude (ft)": 21
  },
  {
    "name": "Brisbane Airport (Australia)",
    "Latitude": -27.38,
    "Longitude": 153.12,
    "Altitude (ft)": 13
  },
  {
    "name": "Adelaide Airport (Australia)",
    "Latitude": -34.95,
    "Longitude": 138.53,
    "Altitude (ft)": 20
  },
  {
    "name": "Copenhagen Airport (Denmark)",
    "Latitude": 55.62,
    "Longitude": 12.65,
    "Altitude (ft)": 17
  },
  {
    "name": "Sendai Airport (Japan)",
    "Latitude": 38.14,
    "Longitude": 140.92,
    "Altitude (ft)": 15
  },
  {
    "name": "Bremen Airport (Germany)",
    "Latitude": 53.05,
    "Longitude": 8.79,
    "Altitude (ft)": 14
  },
  {
    "name": "Lubango Airport (Angola)",
    "Latitude": -14.92,
    "Longitude": 13.58,
    "Altitude (ft)": 5778
  },
  {
    "name": "Pietermaritzburg Airport (South Africa)",
    "Latitude": -29.65,
    "Longitude": 30.4,
    "Altitude (ft)": 2423
  },
  {
    "name": "Kimberley Airport (South Africa)",
    "Latitude": -28.8,
    "Longitude": 24.77,
    "Altitude (ft)": 3950
  },
  {
    "name": "Wuhai Airport (China)",
    "Latitude": 39.79,
    "Longitude": 106.8,
    "Altitude (ft)": -1
  },
  {
    "name": "Zhaotong Airport (China)",
    "Latitude": 27.33,
    "Longitude": 103.76,
    "Altitude (ft)": 6332
  },
  {
    "name": "Izhevsk Airport (Russia)",
    "Latitude": 56.83,
    "Longitude": 53.46,
    "Altitude (ft)": 531
  },
  {
    "name": "Niigata Airport (Japan)",
    "Latitude": 37.96,
    "Longitude": 139.12,
    "Altitude (ft)": 29
  },
  {
    "name": "Lincang Airport (China)",
    "Latitude": 23.74,
    "Longitude": 100.03,
    "Altitude (ft)": 6213
  },
  {
    "name": "Londrina Airport (Brazil)",
    "Latitude": -23.33,
    "Longitude": -51.13,
    "Altitude (ft)": 1867
  },
  {
    "name": "Handan Airport (China)",
    "Latitude": 36.52,
    "Longitude": 114.43,
    "Altitude (ft)": -1
  },
  {
    "name": "Sorocaba Airport (Brazil)",
    "Latitude": -23.48,
    "Longitude": -47.49,
    "Altitude (ft)": 2077
  },
  {
    "name": "Kolwezi Airport (Democratic Republic Of The Congo)",
    "Latitude": -10.77,
    "Longitude": 25.51,
    "Altitude (ft)": 4981
  },
  {
    "name": "Nottingham Airport (United Kingdom)",
    "Latitude": 52.92,
    "Longitude": -1.08,
    "Altitude (ft)": 138
  },
  {
    "name": "Santiago del Estero Airport (Argentina)",
    "Latitude": -27.77,
    "Longitude": -64.31,
    "Altitude (ft)": 656
  },
  {
    "name": "Barinas Airport (Venezuela)",
    "Latitude": 8.62,
    "Longitude": -70.22,
    "Altitude (ft)": 666
  },
  {
    "name": "Penza Airport (Russia)",
    "Latitude": 53.11,
    "Longitude": 45.02,
    "Altitude (ft)": 115
  },
  {
    "name": "Chelyabinsk Airport (Russia)",
    "Latitude": 55.31,
    "Longitude": 61.5,
    "Altitude (ft)": 769
  },
  {
    "name": "Port Said Airport (Egypt)",
    "Latitude": 31.28,
    "Longitude": 32.24,
    "Altitude (ft)": 8
  },
  {
    "name": "Kigali Airport (Rwanda)",
    "Latitude": -1.97,
    "Longitude": 30.14,
    "Altitude (ft)": 4859
  },
  {
    "name": "Barnaul Airport (Russia)",
    "Latitude": 53.36,
    "Longitude": 83.54,
    "Altitude (ft)": 838
  },
  {
    "name": "Juiz de Fora Airport (Brazil)",
    "Latitude": -21.51,
    "Longitude": -43.17,
    "Altitude (ft)": 1348
  },
  {
    "name": "Erzurum Airport (Turkey)",
    "Latitude": 39.96,
    "Longitude": 41.17,
    "Altitude (ft)": 5763
  },
  {
    "name": "Matsuyama Airport (Japan)",
    "Latitude": 33.83,
    "Longitude": 132.7,
    "Altitude (ft)": 25
  },
  {
    "name": "Kochi Airport (Japan)",
    "Latitude": 33.55,
    "Longitude": 133.67,
    "Altitude (ft)": 42
  },
  {
    "name": "Dortmund Airport (Germany)",
    "Latitude": 51.52,
    "Longitude": 7.61,
    "Altitude (ft)": 425
  },
  {
    "name": "Bafoussam Airport (Cameroon)",
    "Latitude": 5.54,
    "Longitude": 10.35,
    "Altitude (ft)": 4347
  },
  {
    "name": "Brussels Airport (Belgium)",
    "Latitude": 50.9,
    "Longitude": 4.48,
    "Altitude (ft)": 184
  },
  {
    "name": "Shizuoka Airport (Japan)",
    "Latitude": 34.8,
    "Longitude": 138.19,
    "Altitude (ft)": 433
  },
  {
    "name": "Bilbao Airport (Spain)",
    "Latitude": 43.3,
    "Longitude": -2.91,
    "Altitude (ft)": 138
  },
  {
    "name": "Bamenda Airport (Cameroon)",
    "Latitude": 6.04,
    "Longitude": 10.12,
    "Altitude (ft)": 4065
  },
  {
    "name": "Lipetsk Airport (Russia)",
    "Latitude": 52.7,
    "Longitude": 39.54,
    "Altitude (ft)": 584
  },
  {
    "name": "Feira de Santana Airport (Brazil)",
    "Latitude": -12.2,
    "Longitude": -38.91,
    "Altitude (ft)": 768
  },
  {
    "name": "Teresina Airport (Brazil)",
    "Latitude": -5.06,
    "Longitude": -42.82,
    "Altitude (ft)": 219
  },
  {
    "name": "Kashgar Airport (China)",
    "Latitude": 39.54,
    "Longitude": 76.02,
    "Altitude (ft)": 4529
  },
  {
    "name": "Okayama Airport (Japan)",
    "Latitude": 34.76,
    "Longitude": 133.86,
    "Altitude (ft)": 806
  },
  {
    "name": "Dresden Airport (Germany)",
    "Latitude": 51.13,
    "Longitude": 13.77,
    "Altitude (ft)": 755
  },
  {
    "name": "Bunia Airport (Democratic Republic Of The Congo)",
    "Latitude": 1.57,
    "Longitude": 30.22,
    "Altitude (ft)": 4045
  },
  {
    "name": "Fukuoka Airport (Japan)",
    "Latitude": 33.59,
    "Longitude": 130.45,
    "Altitude (ft)": 32
  },
  {
    "name": "Frankfurt Airport (Germany)",
    "Latitude": 50.04,
    "Longitude": 8.56,
    "Altitude (ft)": 364
  },
  {
    "name": "Recife Airport (Brazil)",
    "Latitude": -8.13,
    "Longitude": -34.92,
    "Altitude (ft)": 33
  },
  {
    "name": "Nampula Airport (Mozambique)",
    "Latitude": -15.11,
    "Longitude": 39.28,
    "Altitude (ft)": 1444
  },
  {
    "name": "Hiroshima Airport (Japan)",
    "Latitude": 34.44,
    "Longitude": 132.92,
    "Altitude (ft)": 1088
  },
  {
    "name": "Kumasi Airport (Ghana)",
    "Latitude": 6.71,
    "Longitude": -1.59,
    "Altitude (ft)": 942
  },
  {
    "name": "Kananga Airport (Democratic Republic Of The Congo)",
    "Latitude": -5.9,
    "Longitude": 22.47,
    "Altitude (ft)": 2139
  },
  {
    "name": "Nuremberg Airport (Germany)",
    "Latitude": 49.5,
    "Longitude": 11.07,
    "Altitude (ft)": 1046
  },
  {
    "name": "Stuttgart Airport (Germany)",
    "Latitude": 48.69,
    "Longitude": 9.22,
    "Altitude (ft)": 1276
  },
  {
    "name": "Zhongwei Airport (China)",
    "Latitude": 37.57,
    "Longitude": 105.15,
    "Altitude (ft)": 4050
  },
  {
    "name": "Ulsan Airport (South Korea)",
    "Latitude": 35.59,
    "Longitude": 129.35,
    "Altitude (ft)": 45
  },
  {
    "name": "Ouagadougou Airport (Burkina Faso)",
    "Latitude": 12.35,
    "Longitude": -1.51,
    "Altitude (ft)": 1037
  },
  {
    "name": "Jixi Airport (China)",
    "Latitude": 45.29,
    "Longitude": 131.19,
    "Altitude (ft)": 739
  },
  {
    "name": "Heihe Airport (China)",
    "Latitude": 50.17,
    "Longitude": 127.31,
    "Altitude (ft)": 1023
  },
  {
    "name": "Pohang Airport (South Korea)",
    "Latitude": 35.99,
    "Longitude": 129.42,
    "Altitude (ft)": 70
  },
  {
    "name": "Haifa Airport (Israel)",
    "Latitude": 32.81,
    "Longitude": 35.04,
    "Altitude (ft)": 28
  },
  {
    "name": "Kumamoto Airport (Japan)",
    "Latitude": 32.84,
    "Longitude": 130.85,
    "Altitude (ft)": 642
  },
  {
    "name": "Munich Airport (Germany)",
    "Latitude": 48.35,
    "Longitude": 11.79,
    "Altitude (ft)": 1487
  },
  {
    "name": "Kagoshima Airport (Japan)",
    "Latitude": 31.8,
    "Longitude": 130.72,
    "Altitude (ft)": 906
  },
  {
    "name": "Aksu Airport (China)",
    "Latitude": 41.26,
    "Longitude": 80.29,
    "Altitude (ft)": 3816
  },
  {
    "name": "Konya Airport (Turkey)",
    "Latitude": 37.98,
    "Longitude": 32.56,
    "Altitude (ft)": 3381
  },
  {
    "name": "Tongliao Airport (China)",
    "Latitude": 43.56,
    "Longitude": 122.2,
    "Altitude (ft)": 144
  },
  {
    "name": "Tamale Airport (Ghana)",
    "Latitude": 9.56,
    "Longitude": -0.86,
    "Altitude (ft)": 553
  },
  {
    "name": "Tainan Airport (Taiwan)",
    "Latitude": 22.95,
    "Longitude": 120.21,
    "Altitude (ft)": 63
  },
  {
    "name": "Akure Airport (Nigeria)",
    "Latitude": 7.25,
    "Longitude": 5.3,
    "Altitude (ft)": 1100
  },
  {
    "name": "Ibadan Airport (Nigeria)",
    "Latitude": 7.36,
    "Longitude": 3.98,
    "Altitude (ft)": 725
  },
  {
    "name": "Agartala Airport (India)",
    "Latitude": 23.89,
    "Longitude": 91.24,
    "Altitude (ft)": 46
  },
  {
    "name": "Pune Airport (India)",
    "Latitude": 18.58,
    "Longitude": 73.92,
    "Altitude (ft)": 1942
  },
  {
    "name": "Sofia Airport (Bulgaria)",
    "Latitude": 42.7,
    "Longitude": 23.41,
    "Altitude (ft)": 1742
  },
  {
    "name": "Korla Airport (China)",
    "Latitude": 41.69,
    "Longitude": 86.12,
    "Altitude (ft)": 148
  },
  {
    "name": "Cabinda Airport (Angola)",
    "Latitude": -5.6,
    "Longitude": 12.19,
    "Altitude (ft)": 66
  },
  {
    "name": "Taichung Airport (Taiwan)",
    "Latitude": 24.26,
    "Longitude": 120.62,
    "Altitude (ft)": 663
  },
  {
    "name": "Kassala Airport (Sudan)",
    "Latitude": 15.39,
    "Longitude": 36.33,
    "Altitude (ft)": 1671
  },
  {
    "name": "Chaoyang Airport (China)",
    "Latitude": 41.54,
    "Longitude": 120.43,
    "Altitude (ft)": 568
  },
  {
    "name": "Weifang Airport (China)",
    "Latitude": 36.65,
    "Longitude": 119.12,
    "Altitude (ft)": 156
  },
  {
    "name": "Yiwu Airport (China)",
    "Latitude": 29.34,
    "Longitude": 120.03,
    "Altitude (ft)": 248
  },
  {
    "name": "Istanbul Airport (Turkey)",
    "Latitude": 41.27,
    "Longitude": 28.73,
    "Altitude (ft)": 325
  },
  {
    "name": "Jabalpur Airport (India)",
    "Latitude": 23.18,
    "Longitude": 80.05,
    "Altitude (ft)": 1624
  },
  {
    "name": "Quzhou Airport (China)",
    "Latitude": 28.97,
    "Longitude": 118.9,
    "Altitude (ft)": 230
  },
  {
    "name": "Vadodara Airport (India)",
    "Latitude": 22.34,
    "Longitude": 73.23,
    "Altitude (ft)": 129
  },
  {
    "name": "Namangan Airport (Uzbekistan)",
    "Latitude": 40.98,
    "Longitude": 71.56,
    "Altitude (ft)": 1555
  },
  {
    "name": "Antalya Airport (Turkey)",
    "Latitude": 36.9,
    "Longitude": 30.8,
    "Altitude (ft)": 177
  },
  {
    "name": "Madurai Airport (India)",
    "Latitude": 9.83,
    "Longitude": 78.09,
    "Altitude (ft)": 459
  },
  {
    "name": "Gorakhpur Airport (India)",
    "Latitude": 26.74,
    "Longitude": 83.45,
    "Altitude (ft)": 259
  },
  {
    "name": "Jammu Airport (India)",
    "Latitude": 32.69,
    "Longitude": 74.84,
    "Altitude (ft)": 1029
  },
  {
    "name": "Gwalior Airport (India)",
    "Latitude": 26.29,
    "Longitude": 78.23,
    "Altitude (ft)": 617
  },
  {
    "name": "Bareilly Airport (India)",
    "Latitude": 28.42,
    "Longitude": 79.45,
    "Altitude (ft)": 574
  },
  {
    "name": "Bahawalpur Airport (Pakistan)",
    "Latitude": 29.35,
    "Longitude": 71.72,
    "Altitude (ft)": 392
  },
  {
    "name": "Jodhpur Airport (India)",
    "Latitude": 26.25,
    "Longitude": 73.05,
    "Altitude (ft)": 717
  }
]