[
  {
    "name": "BMTC School 4",
    "Google Reviews": 21,
    "Google Rating": 4.0,
    "Latitude": 1.40034,
    "Longitude": 104.05079
  },
  {
    "name": "Universal Studios Singapore",
    "Google Reviews": 97287,
    "Google Rating": 4.6,
    "Latitude": 1.25397,
    "Longitude": 103.82384
  },
  {
    "name": "Resorts World Sentosa",
    "Google Reviews": 86777,
    "Google Rating": 4.6,
    "Latitude": 1.25517,
    "Longitude": 103.82182
  },
  {
    "name": "Raffles Lighthouse",
    "Google Reviews": 88,
    "Google Rating": 4.7,
    "Latitude": 1.15996,
    "Longitude": 103.74088
  },
  {
    "name": "The Hive",
    "Google Reviews": 339,
    "Google Rating": 4.7,
    "Latitude": 1.34322,
    "Longitude": 103.68276
  },
  {
    "name": "Khoo Teck Puat Hospital",
    "Google Reviews": 1010,
    "Google Rating": 2.7,
    "Latitude": 1.42429,
    "Longitude": 103.83861
  },
  {
    "name": "Woodlands Checkpoint",
    "Google Reviews": 1145,
    "Google Rating": 3.2,
    "Latitude": 1.44586,
    "Longitude": 103.7687
  },
  {
    "name": "Teck Lee LRT Station",
    "Google Reviews": 32,
    "Google Rating": 3.1,
    "Latitude": 1.41276,
    "Longitude": 103.90657
  },
  {
    "name": "Cloud Forest",
    "Google Reviews": 26106,
    "Google Rating": 4.8,
    "Latitude": 1.28385,
    "Longitude": 103.86602
  },
  {
    "name": "Revenge of the Mummy",
    "Google Reviews": 156,
    "Google Rating": 4.7,
    "Latitude": 1.25358,
    "Longitude": 103.82297
  },
  {
    "name": "Pedra Branca",
    "Google Reviews": 137,
    "Google Rating": 4.1,
    "Latitude": 1.33028,
    "Longitude": 104.40806
  },
  {
    "name": "Sungei Buloh Wetland Reserve",
    "Google Reviews": 4331,
    "Google Rating": 4.6,
    "Latitude": 1.4464,
    "Longitude": 103.7234
  },
  {
    "name": "Henderson Waves",
    "Google Reviews": 406,
    "Google Rating": 4.7,
    "Latitude": 1.27602,
    "Longitude": 103.81551
  },
  {
    "name": "SAF Yacht Club",
    "Google Reviews": 538,
    "Google Rating": 4.1,
    "Latitude": 1.46981,
    "Longitude": 103.81967
  },
  {
    "name": "Jewel Changi Airport",
    "Google Reviews": 67645,
    "Google Rating": 4.8,
    "Latitude": 1.36016,
    "Longitude": 103.98975
  },
  {
    "name": "Anderson JC Soccer Field",
    "Google Reviews": 2,
    "Google Rating": 3.5,
    "Latitude": 1.37811,
    "Longitude": 103.84666
  },
  {
    "name": "Pasir Laba Bunker",
    "Google Reviews": 2,
    "Google Rating": 4,
    "Latitude": 1.35104,
    "Longitude": 103.64506
  },
  {
    "name": "Sungei Gedong Camp",
    "Google Reviews": 40,
    "Google Rating": 3.5,
    "Latitude": 1.41864,
    "Longitude": 103.6987
  },
  {
    "name": "Sarimbun Scout Camp",
    "Google Reviews": 325,
    "Google Rating": 3.6,
    "Latitude": 1.43735,
    "Longitude": 103.70104
  },
  {
    "name": "Marina Bay Sands",
    "Google Reviews": 50463,
    "Google Rating": 4.7,
    "Latitude": 1.28375,
    "Longitude": 103.85912
  },
  {
    "name": "SUTD Drop-off",
    "Google Reviews": 22,
    "Google Rating": 4.6,
    "Latitude": 1.34028,
    "Longitude": 103.96327
  },
  {
    "name": "Lamp Post #1",
    "Google Reviews": 779,
    "Google Rating": 4.4,
    "Latitude": 1.24179,
    "Longitude": 103.61493
  },
  {
    "name": "Merlion Park",
    "Google Reviews": 65756,
    "Google Rating": 4.6,
    "Latitude": 1.28677,
    "Longitude": 103.85441
  },
  {
    "name": "Rasa Istimewa Waterfront Restaurant",
    "Google Reviews": 1930,
    "Google Rating": 4.3,
    "Latitude": 1.45394,
    "Longitude": 103.77769
  },
  {
    "name": "Supertree Grove",
    "Google Reviews": 44564,
    "Google Rating": 4.7,
    "Latitude": 1.28194,
    "Longitude": 103.86394
  },
  {
    "name": "Woodlands North MRT Station",
    "Google Reviews": 111,
    "Google Rating": 4.6,
    "Latitude": 1.44786,
    "Longitude": 103.78542
  },
  {
    "name": "Semakau Island",
    "Google Reviews": 75,
    "Google Rating": 4.5,
    "Latitude": 1.20635,
    "Longitude": 103.77082
  },
  {
    "name": "Tuas Checkpoint",
    "Google Reviews": 644,
    "Google Rating": 3.2,
    "Latitude": 1.34839,
    "Longitude": 103.63561
  },
  {
    "name": "YCK Road Heavy Vehicle Park",
    "Google Reviews": 10,
    "Google Rating": 4.6,
    "Latitude": 1.39085,
    "Longitude": 103.86305
  },
  {
    "name": "Changi Exhibition Centre",
    "Google Reviews": 937,
    "Google Rating": 4.2,
    "Latitude": 1.364,
    "Longitude": 104.02228
  },
  {
    "name": "NUS S9 Wet Science Building",
    "Google Reviews": 5,
    "Google Rating": 4.6,
    "Latitude": 1.2959,
    "Longitude": 103.78022
  },
  {
    "name": "Victoria School",
    "Google Reviews": 146,
    "Google Rating": 4.7,
    "Latitude": 1.30872,
    "Longitude": 103.92819
  },
  {
    "name": "Chemperai Hut",
    "Google Reviews": 3,
    "Google Rating": 3.3,
    "Latitude": 1.34262,
    "Longitude": 103.82373
  },
  {
    "name": "Lazarus Island",
    "Google Reviews": 198,
    "Google Rating": 4.6,
    "Latitude": 1.22298,
    "Longitude": 103.85402
  },
  {
    "name": "NUS School of Computing",
    "Google Reviews": 82,
    "Google Rating": 4.7,
    "Latitude": 1.29487,
    "Longitude": 103.77369
  },
  {
    "name": "Sembawang Park",
    "Google Reviews": 5409,
    "Google Rating": 4.4,
    "Latitude": 1.46167,
    "Longitude": 103.83691
  },
  {
    "name": "High Commission of Malaysia",
    "Google Reviews": 1632,
    "Google Rating": 2.5,
    "Latitude": 1.2942,
    "Longitude": 103.8249
  },
  {
    "name": "Raffles Marina Lighthouse",
    "Google Reviews": 305,
    "Google Rating": 4.5,
    "Latitude": 1.34448,
    "Longitude": 103.63393
  },
  {
    "name": "Grab HQ @ One-North",
    "Google Reviews": 334,
    "Google Rating": 2.4,
    "Latitude": 1.29181,
    "Longitude": 103.79306
  },
  {
    "name": "Singapore Zoo",
    "Google Reviews": 44912,
    "Google Rating": 4.6,
    "Latitude": 1.40429,
    "Longitude": 103.79303
  },
  {
    "name": "Kusu Island",
    "Google Reviews": 491,
    "Google Rating": 4.5,
    "Latitude": 1.2232,
    "Longitude": 103.86108
  },
  {
    "name": "TheSmartLocal HQ",
    "Google Reviews": 54,
    "Google Rating": 4.7,
    "Latitude": 1.31942,
    "Longitude": 103.86626
  },
  {
    "name": "Faber Point",
    "Google Reviews": 183,
    "Google Rating": 4.7,
    "Latitude": 1.27358,
    "Longitude": 103.81767
  },
  {
    "name": "PCN Coast to Coast CP2",
    "Google Reviews": 4,
    "Google Rating": 4.5,
    "Latitude": 1.34786,
    "Longitude": 103.76097
  },
  {
    "name": "East Coast Park BBQ Pit C12",
    "Google Reviews": 26,
    "Google Rating": 4.6,
    "Latitude": 1.29806,
    "Longitude": 103.90623
  },
  {
    "name": "Labrador Park Car Park C",
    "Google Reviews": 22,
    "Google Rating": 4.6,
    "Latitude": 1.26404,
    "Longitude": 103.80474
  },
  {
    "name": "Chek Jawa Wetlands",
    "Google Reviews": 1010,
    "Google Rating": 4.6,
    "Latitude": 1.40872,
    "Longitude": 103.99103
  },
  {
    "name": "Singapore Navy Museum",
    "Google Reviews": 546,
    "Google Rating": 4.5,
    "Latitude": 1.31658,
    "Longitude": 104.01716
  },
  {
    "name": "Lau Pa Sat",
    "Google Reviews": 28187,
    "Google Rating": 4.3,
    "Latitude": 1.28058,
    "Longitude": 103.85041
  },
  {
    "name": "Ketam Quarry",
    "Google Reviews": 39,
    "Google Rating": 4.53,
    "Latitude": 1.41295,
    "Longitude": 103.94936
  },
  {
    "name": "Woodlands Mart",
    "Google Reviews": 2591,
    "Google Rating": 4.1,
    "Latitude": 1.44546,
    "Longitude": 103.79799
  },
  {
    "name": "Singapore Tanah Merah Port",
    "Google Reviews": 763,
    "Google Rating": 4.1,
    "Latitude": 1.31421,
    "Longitude": 103.98848
  },
  {
    "name": "Marsiling Park",
    "Google Reviews": 1779,
    "Google Rating": 4.1,
    "Latitude": 1.43786,
    "Longitude": 103.76994
  },
  {
    "name": "Tuas Link MRT Station",
    "Google Reviews": 267,
    "Google Rating": 4.4,
    "Latitude": 1.33975,
    "Longitude": 103.6367
  },
  {
    "name": "Tanjong Beach",
    "Google Reviews": 194,
    "Google Rating": 4.5,
    "Latitude": 1.24169,
    "Longitude": 103.82938
  },
  {
    "name": "Changi Village Hawker Centre",
    "Google Reviews": 13109,
    "Google Rating": 4.2,
    "Latitude": 1.38922,
    "Longitude": 103.98831
  },
  {
    "name": "Yunnan Garden",
    "Google Reviews": 526,
    "Google Rating": 4.6,
    "Latitude": 1.34288,
    "Longitude": 103.68481
  },
  {
    "name": "Maxwell Food Centre",
    "Google Reviews": 18769,
    "Google Rating": 4.3,
    "Latitude": 1.2803,
    "Longitude": 103.84477
  },
  {
    "name": "Tan Tock Seng Hospital",
    "Google Reviews": 897,
    "Google Rating": 3.1,
    "Latitude": 1.32136,
    "Longitude": 103.84583
  },
  {
    "name": "Singapore Botanic Gardens",
    "Google Reviews": 41629,
    "Google Rating": 4.7,
    "Latitude": 1.31383,
    "Longitude": 103.81591
  },
  {
    "name": "SAFTI Military Institute",
    "Google Reviews": 81,
    "Google Rating": 4.1,
    "Latitude": 1.33367,
    "Longitude": 103.68034
  },
  {
    "name": "The Slide @ T3",
    "Google Reviews": 155,
    "Google Rating": 4.3,
    "Latitude": 1.35699,
    "Longitude": 103.98762
  },
  {
    "name": "Hotel 81 Geylang",
    "Google Reviews": 541,
    "Google Rating": 3.5,
    "Latitude": 1.31179,
    "Longitude": 103.87971
  },
  {
    "name": "KF1 Karting Circuit",
    "Google Reviews": 1159,
    "Google Rating": 4.4,
    "Latitude": 1.42305,
    "Longitude": 103.75891
  },
  {
    "name": "Canberra MRT Station",
    "Google Reviews": 323,
    "Google Rating": 4.5,
    "Latitude": 1.44348,
    "Longitude": 103.82944
  },
  {
    "name": "NTU North Spine Plaza",
    "Google Reviews": 1307,
    "Google Rating": 4.3,
    "Latitude": 1.34703,
    "Longitude": 103.68082
  },
  {
    "name": "Civil Defence Academy",
    "Google Reviews": 109,
    "Google Rating": 3.8,
    "Latitude": 1.36588,
    "Longitude": 103.6925
  },
  {
    "name": "Southernmost Point of Continental Asia",
    "Google Reviews": 1408,
    "Google Rating": 4.4,
    "Latitude": 1.24796,
    "Longitude": 103.82127
  },
  {
    "name": "iFly Singapore",
    "Google Reviews": 1788,
    "Google Rating": 4.3,
    "Latitude": 1.25203,
    "Longitude": 103.81757
  },
  {
    "name": "NTU Hall 15",
    "Google Reviews": 54,
    "Google Rating": 4.2,
    "Latitude": 1.35424,
    "Longitude": 103.6836
  },
  {
    "name": "Orchard MRT Station Exit 13",
    "Google Reviews": 14,
    "Google Rating": 4.1,
    "Latitude": 1.30248,
    "Longitude": 103.83244
  },
  {
    "name": "Kranji War Memorial",
    "Google Reviews": 666,
    "Google Rating": 4.6,
    "Latitude": 1.41834,
    "Longitude": 103.75817
  },
  {
    "name": "Esplanade",
    "Google Reviews": 18625,
    "Google Rating": 4.6,
    "Latitude": 1.28978,
    "Longitude": 103.85582
  },
  {
    "name": "Ord Bridge",
    "Google Reviews": 19,
    "Google Rating": 4.3,
    "Latitude": 1.29089,
    "Longitude": 103.84399
  },
  {
    "name": "Changi Jurassic Mile",
    "Google Reviews": 2263,
    "Google Rating": 4.3,
    "Latitude": 1.33482,
    "Longitude": 103.98353
  },
  {
    "name": "Tampines Mart",
    "Google Reviews": 1526,
    "Google Rating": 4.1,
    "Latitude": 1.35392,
    "Longitude": 103.95988
  },
  {
    "name": "SCDF HQ",
    "Google Reviews": 40,
    "Google Rating": 3.7,
    "Latitude": 1.33426,
    "Longitude": 103.89312
  },
  {
    "name": "Qian Hu Fish Farm",
    "Google Reviews": 1545,
    "Google Rating": 4.2,
    "Latitude": 1.385,
    "Longitude": 103.72167
  },
  {
    "name": "Sultan Mosque",
    "Google Reviews": 10804,
    "Google Rating": 4.7,
    "Latitude": 1.30225,
    "Longitude": 103.85902
  },
  {
    "name": "Marina Bay Cruise Centre",
    "Google Reviews": 6500,
    "Google Rating": 4.4,
    "Latitude": 1.26688,
    "Longitude": 103.85997
  },
  {
    "name": "Gan Eng Seng School",
    "Google Reviews": 83,
    "Google Rating": 3.3,
    "Latitude": 1.29002,
    "Longitude": 103.82351
  },
  {
    "name": "National Gallery Singapore",
    "Google Reviews": 14314,
    "Google Rating": 4.6,
    "Latitude": 1.29021,
    "Longitude": 103.85153
  },
  {
    "name": "ArtScience Museum",
    "Google Reviews": 14907,
    "Google Rating": 4.5,
    "Latitude": 1.28623,
    "Longitude": 103.85924
  },
  {
    "name": "Siloso Beach",
    "Google Reviews": 631,
    "Google Rating": 4.5,
    "Latitude": 1.25462,
    "Longitude": 103.8113
  },
  {
    "name": "Punggol Plaza",
    "Google Reviews": 3386,
    "Google Rating": 3.9,
    "Latitude": 1.39429,
    "Longitude": 103.91289
  },
  {
    "name": "Snow City Singapore",
    "Google Reviews": 2002,
    "Google Rating": 3.5,
    "Latitude": 1.33517,
    "Longitude": 103.73517
  },
  {
    "name": "IKEA Tampines",
    "Google Reviews": 18102,
    "Google Rating": 4.4,
    "Latitude": 1.37416,
    "Longitude": 103.9323
  },
  {
    "name": "Fort Siloso",
    "Google Reviews": 1974,
    "Google Rating": 4.5,
    "Latitude": 1.25937,
    "Longitude": 103.80865
  },
  {
    "name": "Singapore Science Centre",
    "Google Reviews": 6971,
    "Google Rating": 4.4,
    "Latitude": 1.33312,
    "Longitude": 103.73565
  },
  {
    "name": "Yishun Dam",
    "Google Reviews": 942,
    "Google Rating": 4.4,
    "Latitude": 1.42369,
    "Longitude": 103.86091
  },
  {
    "name": "Singtel Serangoon Hub",
    "Google Reviews": 71,
    "Google Rating": 3.7,
    "Latitude": 1.37249,
    "Longitude": 103.86716
  },
  {
    "name": "Plantation Plaza",
    "Google Reviews": 38,
    "Google Rating": 4.4,
    "Latitude": 1.35752,
    "Longitude": 103.73415
  },
  {
    "name": "Bishan Loft",
    "Google Reviews": 31,
    "Google Rating": 4.1,
    "Latitude": 1.3473,
    "Longitude": 103.8524
  },
  {
    "name": "Berlayer Creek Boardwalk",
    "Google Reviews": 107,
    "Google Rating": 4.6,
    "Latitude": 1.26822,
    "Longitude": 103.80431
  },
  {
    "name": "Lot One",
    "Google Reviews": 7524,
    "Google Rating": 4.1,
    "Latitude": 1.38513,
    "Longitude": 103.7449
  },
  {
    "name": "NEWater Visitor Centre",
    "Google Reviews": 635,
    "Google Rating": 4.5,
    "Latitude": 1.32425,
    "Longitude": 103.95868
  },
  {
    "name": "Ngee Ann City",
    "Google Reviews": 15550,
    "Google Rating": 4.4,
    "Latitude": 1.30255,
    "Longitude": 103.83459
  },
  {
    "name": "Heartland Mall",
    "Google Reviews": 6108,
    "Google Rating": 3.9,
    "Latitude": 1.35948,
    "Longitude": 103.88513
  },
  {
    "name": "Wild Wild Wet",
    "Google Reviews": 4112,
    "Google Rating": 4.3,
    "Latitude": 1.37759,
    "Longitude": 103.95444
  },
  {
    "name": "Hillion Mall",
    "Google Reviews": 8338,
    "Google Rating": 4.2,
    "Latitude": 1.37851,
    "Longitude": 103.76303
  },
  {
    "name": "Singapore Cable Car",
    "Google Reviews": 3757,
    "Google Rating": 4.6,
    "Latitude": 1.27114,
    "Longitude": 103.81961
  },
  {
    "name": "Pasir Panjang Terminal 5 Canteen",
    "Google Reviews": 273,
    "Google Rating": 3.7,
    "Latitude": 1.26364,
    "Longitude": 103.78581
  },
  {
    "name": "Siemens Centre",
    "Google Reviews": 44,
    "Google Rating": 4.1,
    "Latitude": 1.32719,
    "Longitude": 103.87058
  },
  {
    "name": "Lion City Sailors Training Centre",
    "Google Reviews": 51,
    "Google Rating": 4.6,
    "Latitude": 1.32457,
    "Longitude": 103.88295
  },
  {
    "name": "Marina Barrage",
    "Google Reviews": 7358,
    "Google Rating": 4.6,
    "Latitude": 1.28066,
    "Longitude": 103.8711
  },
  {
    "name": "Road Safety Community Park",
    "Google Reviews": 155,
    "Google Rating": 4.0,
    "Latitude": 1.29839,
    "Longitude": 103.90291
  },
  {
    "name": "Bird Paradise",
    "Google Reviews": 4113,
    "Google Rating": 4.5,
    "Latitude": 1.40715,
    "Longitude": 103.78128
  },
  {
    "name": "The Oval",
    "Google Reviews": 180,
    "Google Rating": 4.4,
    "Latitude": 1.40798,
    "Longitude": 103.86782
  },
  {
    "name": "BreadTalk IHQ",
    "Google Reviews": 1552,
    "Google Rating": 4,
    "Latitude": 1.33429,
    "Longitude": 103.88989
  },
  {
    "name": "Fort Canning Park",
    "Google Reviews": 9804,
    "Google Rating": 4.5,
    "Latitude": 1.29437,
    "Longitude": 103.84581
  },
  {
    "name": "Japanese Garden",
    "Google Reviews": 611,
    "Google Rating": 4.4,
    "Latitude": 1.33527,
    "Longitude": 103.73112
  },
  {
    "name": "Decathlon Bedok",
    "Google Reviews": 4699,
    "Google Rating": 4.6,
    "Latitude": 1.32294,
    "Longitude": 103.92242
  },
  {
    "name": "Upper Peirce Reservoir Park",
    "Google Reviews": 1561,
    "Google Rating": 4.6,
    "Latitude": 1.37312,
    "Longitude": 103.81191
  },
  {
    "name": "Danish Seamen's Church",
    "Google Reviews": 48,
    "Google Rating": 4.5,
    "Latitude": 1.27331,
    "Longitude": 103.8149
  },
  {
    "name": "HomeTeamNS Bedok Reservoir",
    "Google Reviews": 388,
    "Google Rating": 4.3,
    "Latitude": 1.34152,
    "Longitude": 103.91912
  },
  {
    "name": "Beach Road Prawn Noodle House",
    "Google Reviews": 2632,
    "Google Rating": 4.2,
    "Latitude": 1.30855,
    "Longitude": 103.91105
  },
  {
    "name": "Le Quest Shopping Mall",
    "Google Reviews": 573,
    "Google Rating": 4.1,
    "Latitude": 1.35573,
    "Longitude": 103.74091
  },
  {
    "name": "Seletar Rocket Tower",
    "Google Reviews": 453,
    "Google Rating": 4.5,
    "Latitude": 1.4007,
    "Longitude": 103.80666
  },
  {
    "name": "ALICE@MEDIAPOLIS",
    "Google Reviews": 64,
    "Google Rating": 3.8,
    "Latitude": 1.29382,
    "Longitude": 103.79344
  },
  {
    "name": "Funan",
    "Google Reviews": 7344,
    "Google Rating": 4.4,
    "Latitude": 1.29125,
    "Longitude": 103.85019
  },
  {
    "name": "Satay by the Bay",
    "Google Reviews": 6044,
    "Google Rating": 4.1,
    "Latitude": 1.2821,
    "Longitude": 103.86887
  },
  {
    "name": "Bishan Ang Mo Kio Park",
    "Google Reviews": 8445,
    "Google Rating": 4.5,
    "Latitude": 1.3634,
    "Longitude": 103.84356
  },
  {
    "name": "HortPark",
    "Google Reviews": 3192,
    "Google Rating": 4.5,
    "Latitude": 1.27912,
    "Longitude": 103.79984
  },
  {
    "name": "Anytime Fitness SKH Campus",
    "Google Reviews": 187,
    "Google Rating": 4.6,
    "Latitude": 1.39633,
    "Longitude": 103.89112
  },
  {
    "name": "McDonald's West Coast Park",
    "Google Reviews": 5440,
    "Google Rating": 4.3,
    "Latitude": 1.29752,
    "Longitude": 103.76337
  },
  {
    "name": "Bukit Timah Summit",
    "Google Reviews": 238,
    "Google Rating": 4.6,
    "Latitude": 1.35464,
    "Longitude": 103.77645
  },
  {
    "name": "Stevens MRT Station",
    "Google Reviews": 55,
    "Google Rating": 3.9,
    "Latitude": 1.31884,
    "Longitude": 103.8257
  },
  {
    "name": "Springleaf Prata Place (Springleaf)",
    "Google Reviews": 2555,
    "Google Rating": 4.2,
    "Latitude": 1.397,
    "Longitude": 103.81885
  },
  {
    "name": "Stephen Riady Centre",
    "Google Reviews": 66,
    "Google Rating": 4.6,
    "Latitude": 1.30451,
    "Longitude": 103.77207
  },
  {
    "name": "Little Guilin",
    "Google Reviews": 1439,
    "Google Rating": 4.4,
    "Latitude": 1.35575,
    "Longitude": 103.75412
  },
  {
    "name": "The Seletar Mall",
    "Google Reviews": 6458,
    "Google Rating": 4.2,
    "Latitude": 1.3915,
    "Longitude": 103.87612
  },
  {
    "name": "Pinnacle@Duxton",
    "Google Reviews": 911,
    "Google Rating": 4.4,
    "Latitude": 1.27694,
    "Longitude": 103.8412
  },
  {
    "name": "National Heart Centre Singapore",
    "Google Reviews": 176,
    "Google Rating": 4.0,
    "Latitude": 1.27859,
    "Longitude": 103.8361
  },
  {
    "name": "Pandan Reservoir Park",
    "Google Reviews": 154,
    "Google Rating": 4.3,
    "Latitude": 1.31877,
    "Longitude": 103.74266
  },
  {
    "name": "Reflections at Bukit Chandu",
    "Google Reviews": 667,
    "Google Rating": 4.5,
    "Latitude": 1.27972,
    "Longitude": 103.79423
  },
  {
    "name": "Bukit Brown Cemetery",
    "Google Reviews": 75,
    "Google Rating": 4.5,
    "Latitude": 1.33608,
    "Longitude": 103.823
  },
  {
    "name": "Makansutra Gluttons Bay",
    "Google Reviews": 3884,
    "Google Rating": 4.1,
    "Latitude": 1.28938,
    "Longitude": 103.85687
  },
  {
    "name": "National Library",
    "Google Reviews": 1537,
    "Google Rating": 4.6,
    "Latitude": 1.29758,
    "Longitude": 103.85433
  },
  {
    "name": "UTown Residence",
    "Google Reviews": 215,
    "Google Rating": 4.5,
    "Latitude": 1.30518,
    "Longitude": 103.77392
  },
  {
    "name": "Fountain of Wealth",
    "Google Reviews": 3600,
    "Google Rating": 4.4,
    "Latitude": 1.29476,
    "Longitude": 103.8589
  },
  {
    "name": "Hong Lim Park",
    "Google Reviews": 845,
    "Google Rating": 4.2,
    "Latitude": 1.28654,
    "Longitude": 103.84654
  },
  {
    "name": "Jacob Ballas Children's Garden",
    "Google Reviews": 1758,
    "Google Rating": 4.6,
    "Latitude": 1.32068,
    "Longitude": 103.81794
  },
  {
    "name": "Food Republic Wisma Atria",
    "Google Reviews": 1434,
    "Google Rating": 4.1,
    "Latitude": 1.30384,
    "Longitude": 103.83306
  },
  {
    "name": "McDonald's Bishan Park",
    "Google Reviews": 2292,
    "Google Rating": 4.2,
    "Latitude": 1.36089,
    "Longitude": 103.84644
  },
  {
    "name": "Pororo Park Singapore",
    "Google Reviews": 1278,
    "Google Rating": 4.3,
    "Latitude": 1.29091,
    "Longitude": 103.85739
  },
  {
    "name": "SAFRA Toa Payoh",
    "Google Reviews": 3332,
    "Google Rating": 4.3,
    "Latitude": 1.33025,
    "Longitude": 103.85468
  },
  {
    "name": "TreeTop Walk",
    "Google Reviews": 3322,
    "Google Rating": 4.6,
    "Latitude": 1.36072,
    "Longitude": 103.81253
  },
  {
    "name": "Suntec Tower 1",
    "Google Reviews": 546,
    "Google Rating": 4.3,
    "Latitude": 1.29549,
    "Longitude": 103.8585
  },
  {
    "name": "Dempsey Hill",
    "Google Reviews": 2180,
    "Google Rating": 4.5,
    "Latitude": 1.30399,
    "Longitude": 103.80985
  },
  {
    "name": "Synapxe",
    "Google Reviews": 224,
    "Google Rating": 4.2,
    "Latitude": 1.30629,
    "Longitude": 103.79267
  }
]