[
  {
    "name": "BMTC School 4",
    "Latitude": 1.402534,
    "Longitude": 104.0541536,
    "Google Reviews": 21,
    "Google Rating": 4.0
  },
  {
    "name": "Universal Studios Singapore",
    "Latitude": 1.2541673,
    "Longitude": 103.8204697,
    "Google Reviews": 97287,
    "Google Rating": 4.6
  },
  {
    "name": "Resorts World Sentosa",
    "Latitude": 1.2555448,
    "Longitude": 103.8186002,
    "Google Reviews": 86777,
    "Google Rating": 4.6
  },
  {
    "name": "Raffles Lighthouse",
    "Latitude": 1.159974,
    "Longitude": 103.73829,
    "Google Reviews": 88,
    "Google Rating": 4.7
  },
  {
    "name": "Woodlands Checkpoint",
    "Latitude": 1.447375,
    "Longitude": 103.7638381,
    "Google Reviews": 1145,
    "Google Rating": 3.2
  },
  {
    "name": "The Hive",
    "Latitude": 1.3447708,
    "Longitude": 103.6808125,
    "Google Reviews": 339,
    "Google Rating": 4.7
  },
  {
    "name": "Khoo Teck Puat Hospital",
    "Latitude": 1.4241168,
    "Longitude": 103.833576,
    "Google Reviews": 1010,
    "Google Rating": 2.7
  },
  {
    "name": "Cloud Forest",
    "Latitude": 1.2822196,
    "Longitude": 103.8618771,
    "Google Reviews": 26106,
    "Google Rating": 4.8
  },
  {
    "name": "Faber Point",
    "Latitude": 1.2717503,
    "Longitude": 103.8166305,
    "Google Reviews": 183,
    "Google Rating": 4.7
  },
  {
    "name": "Teck Lee LRT Station",
    "Latitude": 1.4127696,
    "Longitude": 103.9039977,
    "Google Reviews": 32,
    "Google Rating": 3.1
  },
  {
    "name": "Pedra Branca",
    "Latitude": 1.330277,
    "Longitude": 104.39,
    "Google Reviews": 137,
    "Google Rating": 4.1
  },
  {
    "name": "Revenge of the Mummy",
    "Latitude": 1.2535651,
    "Longitude": 103.820369,
    "Google Reviews": 156,
    "Google Rating": 4.7
  },
  {
    "name": "SAF Yacht Club",
    "Latitude": 1.4670402,
    "Longitude": 103.8171447,
    "Google Reviews": 538,
    "Google Rating": 4.1
  },
  {
    "name": "Jewel Changi Airport",
    "Latitude": 1.3602094,
    "Longitude": 103.9871849,
    "Google Reviews": 67645,
    "Google Rating": 4.8
  },
  {
    "name": "Pasir Laba Bunker",
    "Latitude": 1.3476683,
    "Longitude": 103.6384729,
    "Google Reviews": 2,
    "Google Rating": 4
  },
  {
    "name": "Marina Bay Sands",
    "Latitude": 1.2837575,
    "Longitude": 103.8565316,
    "Google Reviews": 50463,
    "Google Rating": 4.7
  },
  {
    "name": "Sarimbun Scout Camp",
    "Latitude": 1.4304921,
    "Longitude": 103.7040525,
    "Google Reviews": 325,
    "Google Rating": 3.6
  },
  {
    "name": "Supertree Grove",
    "Latitude": 1.281319,
    "Longitude": 103.8633613,
    "Google Reviews": 44564,
    "Google Rating": 4.7
  },
  {
    "name": "NUS The Terrace",
    "Latitude": 1.2936956,
    "Longitude": 103.7731441,
    "Google Reviews": 2,
    "Google Rating": 2
  },
  {
    "name": "Sungei Buloh Wetland Reserve",
    "Latitude": 1.4396406,
    "Longitude": 103.725084,
    "Google Reviews": 4331,
    "Google Rating": 4.6
  },
  {
    "name": "SUTD Drop-off",
    "Latitude": 1.3403183,
    "Longitude": 103.9606941,
    "Google Reviews": 22,
    "Google Rating": 4.6
  },
  {
    "name": "Lamp Post #1",
    "Latitude": 1.241808,
    "Longitude": 103.612355,
    "Google Reviews": 779,
    "Google Rating": 4.4
  },
  {
    "name": "YCK Road Heavy Vehicle Park",
    "Latitude": 1.3908806,
    "Longitude": 103.8604569,
    "Google Reviews": 10,
    "Google Rating": 4.6
  },
  {
    "name": "Rasa Istimewa Waterfront Restaurant",
    "Latitude": 1.4529103,
    "Longitude": 103.7773455,
    "Google Reviews": 1930,
    "Google Rating": 4.3
  },
  {
    "name": "Victoria School",
    "Latitude": 1.3087386,
    "Longitude": 103.9256187,
    "Google Reviews": 146,
    "Google Rating": 4.7
  },
  {
    "name": "Sungei Gedong Camp",
    "Latitude": 1.4186492,
    "Longitude": 103.6961095,
    "Google Reviews": 40,
    "Google Rating": 3.5
  },
  {
    "name": "NUS School of Computing",
    "Latitude": 1.294661,
    "Longitude": 103.772153,
    "Google Reviews": 82,
    "Google Rating": 4.7
  },
  {
    "name": "Tuas Checkpoint",
    "Latitude": 1.3424148,
    "Longitude": 103.6335592,
    "Google Reviews": 644,
    "Google Rating": 3.2
  },
  {
    "name": "Henderson Waves",
    "Latitude": 1.2770319,
    "Longitude": 103.8159162,
    "Google Reviews": 406,
    "Google Rating": 4.7
  },
  {
    "name": "Semakau Island",
    "Latitude": 1.2034094,
    "Longitude": 103.7591493,
    "Google Reviews": 75,
    "Google Rating": 4.5
  },
  {
    "name": "Chemperai Hut",
    "Latitude": 1.3426242,
    "Longitude": 103.8211305,
    "Google Reviews": 3,
    "Google Rating": 3.3
  },
  {
    "name": "Woodlands North MRT Station",
    "Latitude": 1.4455166,
    "Longitude": 103.7826525,
    "Google Reviews": 111,
    "Google Rating": 4.6
  },
  {
    "name": "Singapore Zoo",
    "Latitude": 1.4002666,
    "Longitude": 103.7869311,
    "Google Reviews": 44912,
    "Google Rating": 4.6
  },
  {
    "name": "Lazarus Island",
    "Latitude": 1.222724,
    "Longitude": 103.84938,
    "Google Reviews": 198,
    "Google Rating": 4.6
  },
  {
    "name": "Sembawang Park",
    "Latitude": 1.4585057,
    "Longitude": 103.8320437,
    "Google Reviews": 5409,
    "Google Rating": 4.4
  },
  {
    "name": "Yunnan Garden",
    "Latitude": 1.3430724,
    "Longitude": 103.682201,
    "Google Reviews": 526,
    "Google Rating": 4.6
  },
  {
    "name": "Changi Exhibition Centre",
    "Latitude": 1.3600267,
    "Longitude": 104.022122,
    "Google Reviews": 937,
    "Google Rating": 4.2
  },
  {
    "name": "Singapore Tanah Merah Port",
    "Latitude": 1.3137981,
    "Longitude": 103.9890711,
    "Google Reviews": 763,
    "Google Rating": 4.1
  },
  {
    "name": "Raffles Marina Lighthouse",
    "Latitude": 1.34449,
    "Longitude": 103.6313554,
    "Google Reviews": 305,
    "Google Rating": 4.5
  },
  {
    "name": "NUS S9 Wet Science Building",
    "Latitude": 1.2958822,
    "Longitude": 103.7776331,
    "Google Reviews": 5,
    "Google Rating": 4.6
  },
  {
    "name": "Lau Pa Sat",
    "Latitude": 1.2805121,
    "Longitude": 103.847806,
    "Google Reviews": 28187,
    "Google Rating": 4.3
  },
  {
    "name": "TheSmartLocal HQ",
    "Latitude": 1.3194279,
    "Longitude": 103.8636631,
    "Google Reviews": 54,
    "Google Rating": 4.7
  },
  {
    "name": "PCN Coast to Coast CP2",
    "Latitude": 1.3478768,
    "Longitude": 103.7583902,
    "Google Reviews": 4,
    "Google Rating": 4.5
  },
  {
    "name": "Kusu Island",
    "Latitude": 1.2230965,
    "Longitude": 103.8579483,
    "Google Reviews": 491,
    "Google Rating": 4.5
  },
  {
    "name": "High Commission of Malaysia",
    "Latitude": 1.2941866,
    "Longitude": 103.82182,
    "Google Reviews": 1632,
    "Google Rating": 2.5
  },
  {
    "name": "Woodlands Mart",
    "Latitude": 1.4436767,
    "Longitude": 103.7940694,
    "Google Reviews": 2591,
    "Google Rating": 4.1
  },
  {
    "name": "Grab HQ @ One-North",
    "Latitude": 1.2918178,
    "Longitude": 103.7904713,
    "Google Reviews": 334,
    "Google Rating": 2.4
  },
  {
    "name": "The Slide @ T3",
    "Latitude": 1.3578927,
    "Longitude": 103.9887319,
    "Google Reviews": 155,
    "Google Rating": 4.3
  },
  {
    "name": "Singapore Navy Museum",
    "Latitude": 1.3153712,
    "Longitude": 104.0075488,
    "Google Reviews": 546,
    "Google Rating": 4.5
  },
  {
    "name": "Maxwell Food Centre",
    "Latitude": 1.2794925,
    "Longitude": 103.8414601,
    "Google Reviews": 18769,
    "Google Rating": 4.3
  },
  {
    "name": "Ketam Quarry",
    "Latitude": 1.4113023,
    "Longitude": 103.9470928,
    "Google Reviews": 39,
    "Google Rating": 4.53
  },
  {
    "name": "Tuas Link MRT Station",
    "Latitude": 1.3407108,
    "Longitude": 103.6362409,
    "Google Reviews": 267,
    "Google Rating": 4.4
  },
  {
    "name": "Marsiling Park",
    "Latitude": 1.4358759,
    "Longitude": 103.7698126,
    "Google Reviews": 1779,
    "Google Rating": 4.1
  },
  {
    "name": "Singapore Botanic Gardens",
    "Latitude": 1.3094517,
    "Longitude": 103.8102,
    "Google Reviews": 41629,
    "Google Rating": 4.7
  },
  {
    "name": "Canberra MRT Station",
    "Latitude": 1.4442415,
    "Longitude": 103.8203857,
    "Google Reviews": 323,
    "Google Rating": 4.5
  },
  {
    "name": "East Coast Park BBQ Pit C12",
    "Latitude": 1.2980713,
    "Longitude": 103.9036467,
    "Google Reviews": 26,
    "Google Rating": 4.6
  },
  {
    "name": "Changi Village Hawker Centre",
    "Latitude": 1.3885294,
    "Longitude": 103.9851703,
    "Google Reviews": 13109,
    "Google Rating": 4.2
  },
  {
    "name": "Singapore Cable Car",
    "Latitude": 1.2711448,
    "Longitude": 103.8170243,
    "Google Reviews": 3757,
    "Google Rating": 4.6
  },
  {
    "name": "Tanjong Beach",
    "Latitude": 1.2425532,
    "Longitude": 103.824831,
    "Google Reviews": 194,
    "Google Rating": 4.5
  },
  {
    "name": "Labrador Park Car Park C",
    "Latitude": 1.264046,
    "Longitude": 103.8021668,
    "Google Reviews": 22,
    "Google Rating": 4.6
  },
  {
    "name": "KF1 Karting Circuit",
    "Latitude": 1.4230445,
    "Longitude": 103.7562756,
    "Google Reviews": 1159,
    "Google Rating": 4.4
  },
  {
    "name": "SAFTI Military Institute",
    "Latitude": 1.3318393,
    "Longitude": 103.6771733,
    "Google Reviews": 81,
    "Google Rating": 4.1
  },
  {
    "name": "Tan Tock Seng Hospital",
    "Latitude": 1.3213889,
    "Longitude": 103.8432584,
    "Google Reviews": 897,
    "Google Rating": 3.1
  },
  {
    "name": "Esplanade",
    "Latitude": 1.2897001,
    "Longitude": 103.8552531,
    "Google Reviews": 18625,
    "Google Rating": 4.6
  },
  {
    "name": "NTU North Spine Plaza",
    "Latitude": 1.3457941,
    "Longitude": 103.6782468,
    "Google Reviews": 1307,
    "Google Rating": 4.3
  },
  {
    "name": "Civil Defence Academy",
    "Latitude": 1.3710115,
    "Longitude": 103.6898665,
    "Google Reviews": 109,
    "Google Rating": 3.8
  },
  {
    "name": "Kranji War Memorial",
    "Latitude": 1.414306,
    "Longitude": 103.7541461,
    "Google Reviews": 666,
    "Google Rating": 4.6
  },
  {
    "name": "Southernmost Point of Continental Asia",
    "Latitude": 1.2476364,
    "Longitude": 103.819821,
    "Google Reviews": 1408,
    "Google Rating": 4.4
  },
  {
    "name": "iFly Singapore",
    "Latitude": 1.2520666,
    "Longitude": 103.8149975,
    "Google Reviews": 1788,
    "Google Rating": 4.3
  },
  {
    "name": "SCDF HQ",
    "Latitude": 1.3342729,
    "Longitude": 103.8905381,
    "Google Reviews": 40,
    "Google Rating": 3.7
  },
  {
    "name": "Chek Jawa Wetlands",
    "Latitude": 1.4060631,
    "Longitude": 103.983159,
    "Google Reviews": 1010,
    "Google Rating": 4.6
  },
  {
    "name": "Orchard MRT Station Exit 13",
    "Latitude": 1.3030769,
    "Longitude": 103.8292956,
    "Google Reviews": 14,
    "Google Rating": 4.1
  },
  {
    "name": "Siloso Beach",
    "Latitude": 1.2521825,
    "Longitude": 103.8096448,
    "Google Reviews": 631,
    "Google Rating": 4.5
  },
  {
    "name": "NTU Hall 15",
    "Latitude": 1.3542412,
    "Longitude": 103.682394,
    "Google Reviews": 54,
    "Google Rating": 4.2
  },
  {
    "name": "Hotel 81 Geylang",
    "Latitude": 1.3117788,
    "Longitude": 103.8782436,
    "Google Reviews": 541,
    "Google Rating": 3.5
  },
  {
    "name": "Ord Bridge",
    "Latitude": 1.2908657,
    "Longitude": 103.841429,
    "Google Reviews": 19,
    "Google Rating": 4.3
  },
  {
    "name": "Tampines Mart",
    "Latitude": 1.3524339,
    "Longitude": 103.9554055,
    "Google Reviews": 1526,
    "Google Rating": 4.1
  },
  {
    "name": "Snow City Singapore",
    "Latitude": 1.3351884,
    "Longitude": 103.7325944,
    "Google Reviews": 2002,
    "Google Rating": 3.5
  },
  {
    "name": "Changi Jurassic Mile",
    "Latitude": 1.3348184,
    "Longitude": 103.9809304,
    "Google Reviews": 2263,
    "Google Rating": 4.3
  },
  {
    "name": "Qian Hu Fish Farm",
    "Latitude": 1.3839272,
    "Longitude": 103.7233533,
    "Google Reviews": 1545,
    "Google Rating": 4.2
  },
  {
    "name": "ArtScience Museum",
    "Latitude": 1.2862738,
    "Longitude": 103.8572979,
    "Google Reviews": 14907,
    "Google Rating": 4.5
  },
  {
    "name": "Sultan Mosque",
    "Latitude": 1.3005697,
    "Longitude": 103.8486481,
    "Google Reviews": 10804,
    "Google Rating": 4.7
  },
  {
    "name": "Berlayer Creek Boardwalk",
    "Latitude": 1.2653499,
    "Longitude": 103.796222,
    "Google Reviews": 107,
    "Google Rating": 4.6
  },
  {
    "name": "Punggol Plaza",
    "Latitude": 1.3942801,
    "Longitude": 103.9103307,
    "Google Reviews": 3386,
    "Google Rating": 3.9
  },
  {
    "name": "IKEA Tampines",
    "Latitude": 1.372538,
    "Longitude": 103.9301632,
    "Google Reviews": 18102,
    "Google Rating": 4.4
  },
  {
    "name": "Gan Eng Seng School",
    "Latitude": 1.2900347,
    "Longitude": 103.8209368,
    "Google Reviews": 83,
    "Google Rating": 3.3
  },
  {
    "name": "National Gallery Singapore",
    "Latitude": 1.2902217,
    "Longitude": 103.8489418,
    "Google Reviews": 14314,
    "Google Rating": 4.6
  },
  {
    "name": "Lot One",
    "Latitude": 1.3876417,
    "Longitude": 103.7406753,
    "Google Reviews": 7524,
    "Google Rating": 4.1
  },
  {
    "name": "Singapore Science Centre",
    "Latitude": 1.3333543,
    "Longitude": 103.7331611,
    "Google Reviews": 6971,
    "Google Rating": 4.4
  },
  {
    "name": "Wild Wild Wet",
    "Latitude": 1.3780636,
    "Longitude": 103.9535904,
    "Google Reviews": 4112,
    "Google Rating": 4.3
  },
  {
    "name": "Ngee Ann City",
    "Latitude": 1.3025572,
    "Longitude": 103.8319931,
    "Google Reviews": 15550,
    "Google Rating": 4.4
  },
  {
    "name": "Plantation Plaza",
    "Latitude": 1.3566488,
    "Longitude": 103.7311834,
    "Google Reviews": 38,
    "Google Rating": 4.4
  },
  {
    "name": "Bishan Loft",
    "Latitude": 1.3473252,
    "Longitude": 103.8498585,
    "Google Reviews": 31,
    "Google Rating": 4.1
  },
  {
    "name": "Singtel Serangoon Hub",
    "Latitude": 1.3725271,
    "Longitude": 103.8645758,
    "Google Reviews": 71,
    "Google Rating": 3.7
  },
  {
    "name": "Pasir Panjang Terminal 5 Canteen",
    "Latitude": 1.2639898,
    "Longitude": 103.7821534,
    "Google Reviews": 273,
    "Google Rating": 3.7
  },
  {
    "name": "Yishun Dam",
    "Latitude": 1.4186685,
    "Longitude": 103.8602935,
    "Google Reviews": 942,
    "Google Rating": 4.4
  },
  {
    "name": "Hillion Mall",
    "Latitude": 1.3785144,
    "Longitude": 103.7604447,
    "Google Reviews": 8338,
    "Google Rating": 4.2
  },
  {
    "name": "Heartland Mall",
    "Latitude": 1.359469,
    "Longitude": 103.882554,
    "Google Reviews": 6108,
    "Google Rating": 3.9
  },
  {
    "name": "NEWater Visitor Centre",
    "Latitude": 1.3213462,
    "Longitude": 103.9512529,
    "Google Reviews": 635,
    "Google Rating": 4.5
  },
  {
    "name": "Siemens Centre",
    "Latitude": 1.3271133,
    "Longitude": 103.8689505,
    "Google Reviews": 44,
    "Google Rating": 4.1
  },
  {
    "name": "Lion City Sailors Training Centre",
    "Latitude": 1.3245654,
    "Longitude": 103.8803619,
    "Google Reviews": 51,
    "Google Rating": 4.6
  },
  {
    "name": "Marina Barrage",
    "Latitude": 1.2818785,
    "Longitude": 103.8680453,
    "Google Reviews": 7358,
    "Google Rating": 4.6
  },
  {
    "name": "Fort Siloso",
    "Latitude": 1.2661423,
    "Longitude": 103.8074001,
    "Google Reviews": 1974,
    "Google Rating": 4.5
  },
  {
    "name": "The Oval",
    "Latitude": 1.4081975,
    "Longitude": 103.8665354,
    "Google Reviews": 180,
    "Google Rating": 4.4
  },
  {
    "name": "Bird Paradise",
    "Latitude": 1.4071539,
    "Longitude": 103.7786935,
    "Google Reviews": 4113,
    "Google Rating": 4.5
  },
  {
    "name": "Jacob Ballas Children's Garden",
    "Latitude": 1.3198023,
    "Longitude": 103.8120388,
    "Google Reviews": 1758,
    "Google Rating": 4.6
  },
  {
    "name": "Fort Canning Park",
    "Latitude": 1.2943876,
    "Longitude": 103.8432284,
    "Google Reviews": 9804,
    "Google Rating": 4.5
  },
  {
    "name": "Japanese Garden",
    "Latitude": 1.3358655,
    "Longitude": 103.7250603,
    "Google Reviews": 611,
    "Google Rating": 4.4
  },
  {
    "name": "Road Safety Community Park",
    "Latitude": 1.298322,
    "Longitude": 103.9003521,
    "Google Reviews": 155,
    "Google Rating": 4.0
  },
  {
    "name": "Marina Bay Cruise Centre",
    "Latitude": 1.2805418,
    "Longitude": 103.8449021,
    "Google Reviews": 6500,
    "Google Rating": 4.4
  },
  {
    "name": "BreadTalk IHQ",
    "Latitude": 1.3342817,
    "Longitude": 103.8873113,
    "Google Reviews": 1552,
    "Google Rating": 4
  },
  {
    "name": "Upper Peirce Reservoir Park",
    "Latitude": 1.3586951,
    "Longitude": 103.8021873,
    "Google Reviews": 1561,
    "Google Rating": 4.6
  },
  {
    "name": "Decathlon Bedok",
    "Latitude": 1.322927,
    "Longitude": 103.9198192,
    "Google Reviews": 4699,
    "Google Rating": 4.6
  },
  {
    "name": "Danish Seamen's Church",
    "Latitude": 1.2733415,
    "Longitude": 103.8123375,
    "Google Reviews": 48,
    "Google Rating": 4.5
  },
  {
    "name": "HomeTeamNS Bedok Reservoir",
    "Latitude": 1.3415331,
    "Longitude": 103.9165483,
    "Google Reviews": 388,
    "Google Rating": 4.3
  },
  {
    "name": "Funan",
    "Latitude": 1.2897967,
    "Longitude": 103.8497504,
    "Google Reviews": 7344,
    "Google Rating": 4.4
  },
  {
    "name": "Beach Road Prawn Noodle House",
    "Latitude": 1.3085722,
    "Longitude": 103.9084725,
    "Google Reviews": 2632,
    "Google Rating": 4.2
  },
  {
    "name": "Satay by the Bay",
    "Latitude": 1.2815446,
    "Longitude": 103.8641034,
    "Google Reviews": 6044,
    "Google Rating": 4.1
  },
  {
    "name": "Le Quest Shopping Mall",
    "Latitude": 1.3557406,
    "Longitude": 103.7383093,
    "Google Reviews": 573,
    "Google Rating": 4.1
  },
  {
    "name": "Bishan Ang Mo Kio Park",
    "Latitude": 1.366823,
    "Longitude": 103.8351014,
    "Google Reviews": 8445,
    "Google Rating": 4.5
  },
  {
    "name": "McDonald's West Coast Park",
    "Latitude": 1.2963004,
    "Longitude": 103.7564236,
    "Google Reviews": 5440,
    "Google Rating": 4.3
  },
  {
    "name": "HortPark",
    "Latitude": 1.2791307,
    "Longitude": 103.7972436,
    "Google Reviews": 3192,
    "Google Rating": 4.5
  },
  {
    "name": "Bukit Timah Summit",
    "Latitude": 1.357244,
    "Longitude": 103.772709,
    "Google Reviews": 238,
    "Google Rating": 4.6
  },
  {
    "name": "ALICE@MEDIAPOLIS",
    "Latitude": 1.2938457,
    "Longitude": 103.7908503,
    "Google Reviews": 64,
    "Google Rating": 3.8
  },
  {
    "name": "Stevens MRT Station",
    "Latitude": 1.320778,
    "Longitude": 103.8150737,
    "Google Reviews": 55,
    "Google Rating": 3.9
  },
  {
    "name": "Pinnacle@Duxton",
    "Latitude": 1.2769228,
    "Longitude": 103.8386211,
    "Google Reviews": 911,
    "Google Rating": 4.4
  },
  {
    "name": "Anytime Fitness SKH Campus",
    "Latitude": 1.3963094,
    "Longitude": 103.8885607,
    "Google Reviews": 187,
    "Google Rating": 4.6
  },
  {
    "name": "Stephen Riady Centre",
    "Latitude": 1.301686,
    "Longitude": 103.7701362,
    "Google Reviews": 66,
    "Google Rating": 4.6
  },
  {
    "name": "Seletar Rocket Tower",
    "Latitude": 1.3996567,
    "Longitude": 103.8065788,
    "Google Reviews": 453,
    "Google Rating": 4.5
  },
  {
    "name": "Springleaf Prata Place (Springleaf)",
    "Latitude": 1.3975414,
    "Longitude": 103.8186531,
    "Google Reviews": 2555,
    "Google Rating": 4.2
  },
  {
    "name": "Little Guilin",
    "Latitude": 1.3526056,
    "Longitude": 103.7499115,
    "Google Reviews": 1439,
    "Google Rating": 4.4
  },
  {
    "name": "National Heart Centre Singapore",
    "Latitude": 1.2785753,
    "Longitude": 103.8258087,
    "Google Reviews": 176,
    "Google Rating": 4.0
  },
  {
    "name": "The Seletar Mall",
    "Latitude": 1.3931376,
    "Longitude": 103.8746472,
    "Google Reviews": 6458,
    "Google Rating": 4.2
  },
  {
    "name": "Pandan Reservoir Park",
    "Latitude": 1.3179854,
    "Longitude": 103.7417245,
    "Google Reviews": 154,
    "Google Rating": 4.3
  },
  {
    "name": "Bukit Brown Cemetery",
    "Latitude": 1.3361057,
    "Longitude": 103.82704097,
    "Google Reviews": 75,
    "Google Rating": 4.5
  },
  {
    "name": "National Stadium",
    "Latitude": 1.3032009,
    "Longitude": 103.8741999,
    "Google Reviews": 5552,
    "Google Rating": 4.5
  },
  {
    "name": "Makansutra Gluttons Bay",
    "Latitude": 1.2894024,
    "Longitude": 103.8542949,
    "Google Reviews": 3884,
    "Google Rating": 4.1
  },
  {
    "name": "Reflections at Bukit Chandu",
    "Latitude": 1.2849862,
    "Longitude": 103.7874193,
    "Google Reviews": 667,
    "Google Rating": 4.5
  },
  {
    "name": "National Library",
    "Latitude": 1.2975884,
    "Longitude": 103.8517332,
    "Google Reviews": 1537,
    "Google Rating": 4.6
  },
  {
    "name": "Hong Lim Park",
    "Latitude": 1.2853541,
    "Longitude": 103.8433694,
    "Google Reviews": 845,
    "Google Rating": 4.2
  },
  {
    "name": "McDonald's Bishan Park",
    "Latitude": 1.3608791,
    "Longitude": 103.8438688,
    "Google Reviews": 2292,
    "Google Rating": 4.2
  },
  {
    "name": "Fountain of Wealth",
    "Latitude": 1.2947425,
    "Longitude": 103.8563277,
    "Google Reviews": 3600,
    "Google Rating": 4.4
  },
  {
    "name": "Food Republic Wisma Atria",
    "Latitude": 1.3038568,
    "Longitude": 103.8304809,
    "Google Reviews": 1434,
    "Google Rating": 4.1
  },
  {
    "name": "UTown Residence",
    "Latitude": 1.3051716,
    "Longitude": 103.7740097,
    "Google Reviews": 215,
    "Google Rating": 4.5
  },
  {
    "name": "Pororo Park Singapore",
    "Latitude": 1.2906102,
    "Longitude": 103.8571115,
    "Google Reviews": 1278,
    "Google Rating": 4.3
  },
  {
    "name": "TreeTop Walk",
    "Latitude": 1.3495861,
    "Longitude": 103.8006207,
    "Google Reviews": 3322,
    "Google Rating": 4.6
  },
  {
    "name": "SAFRA Toa Payoh",
    "Latitude": 1.3302722,
    "Longitude": 103.8520967,
    "Google Reviews": 3332,
    "Google Rating": 4.3
  },
  {
    "name": "Suntec City Tower 1",
    "Latitude": 1.2955249,
    "Longitude": 103.8559203,
    "Google Reviews": 546,
    "Google Rating": 4.3
  },
  {
    "name": "Dempsey Hill",
    "Latitude": 1.3066997,
    "Longitude": 103.80402,
    "Google Reviews": 2180,
    "Google Rating": 4.5
  },
  {
    "name": "Synapxe",
    "Latitude": 1.3063029,
    "Longitude": 103.7900805,
    "Google Reviews": 224,
    "Google Rating": 4.2
  }
]