[{"label": "BP1", "name": "Choa Chu Kang", "lat": "1.385", "lng": "103.7444444"}, {"label": "BP10", "name": "Fajar", "lat": "1.384444444", "lng": "103.7708333"}, {"label": "BP11", "name": "Segar", "lat": "1.387777778", "lng": "103.7694444"}, {"label": "BP12", "name": "Jelapang", "lat": "1.386666667", "lng": "103.7644444"}, {"label": "BP13", "name": "Senja", "lat": "1.382777778", "lng": "103.7622222"}, {"label": "BP14", "name": "Ten Mile Junction", "lat": "1.380277778", "lng": "103.76"}, {"label": "BP2", "name": "South View", "lat": "1.380277778", "lng": "103.7452778"}, {"label": "BP3", "name": "Keat Hong", "lat": "1.378611111", "lng": "103.7488889"}, {"label": "BP4", "name": "Teck Whye", "lat": "1.376666667", "lng": "103.7536111"}, {"label": "BP5", "name": "Phoenix", "lat": "1.378611111", "lng": "103.7580556"}, {"label": "BP6", "name": "Bukit Panjang", "lat": "1.378333333", "lng": "103.7616667"}, {"label": "BP7", "name": "Petir", "lat": "1.377777778", "lng": "103.7666667"}, {"label": "BP8", "name": "Pending", "lat": "1.376111111", "lng": "103.7711111"}, {"label": "BP9", "name": "Bangkit", "lat": "1.38", "lng": "103.7725"}, {"label": "CC1", "name": "Dhoby Ghaut", "lat": "1.2987913", "lng": "103.8457636"}, {"label": "CC10", "name": "MacPherson", "lat": "1.326666667", "lng": "103.89"}, {"label": "CC11", "name": "Tai Seng", "lat": "1.335833333", "lng": "103.8880556"}, {"label": "CC12", "name": "Bartley", "lat": "1.342777778", "lng": "103.8797222"}, {"label": "CC13", "name": "Serangoon", "lat": "1.3506972", "lng": "103.8719398"}, {"label": "CC14", "name": "Lorong Chuan", "lat": "1.351666667", "lng": "103.8641667"}, {"label": "CC15", "name": "Bishan", "lat": "1.351111111", "lng": "103.8483333"}, {"label": "CC16", "name": "Marymount", "lat": "1.349166667", "lng": "103.8394444"}, {"label": "CC17", "name": "Caldecott", "lat": "1.337777778", "lng": "103.8394444"}, {"label": "CC18", "name": "Bukit Brown", "lat": "1.333611111", "lng": "103.83"}, {"label": "CC19", "name": "Botanic Gardens", "lat": "1.3225", "lng": "103.8152778"}, {"label": "CC2", "name": "Bras Basah", "lat": "1.296944444", "lng": "103.8505556"}, {"label": "CC20", "name": "Farrer Road", "lat": "1.317222222", "lng": "103.8075"}, {"label": "CC21", "name": "Holland Village", "lat": "1.311944444", "lng": "103.7961111"}, {"label": "CC22", "name": "Buona Vista", "lat": "1.3066254", "lng": "103.7906823"}, {"label": "CC23", "name": "one-north", "lat": "1.299444444", "lng": "103.7869444"}, {"label": "CC24", "name": "Kent Ridge", "lat": "1.293333333", "lng": "103.7844444"}, {"label": "CC25", "name": "Haw Par Villa", "lat": "1.2825", "lng": "103.7819444"}, {"label": "CC26", "name": "Pasir Panjang", "lat": "1.276111111", "lng": "103.7913889"}, {"label": "CC27", "name": "Labrador Park", "lat": "1.272222222", "lng": "103.8027778"}, {"label": "CC28", "name": "Telok Blangah", "lat": "1.270555556", "lng": "103.8097222"}, {"label": "CC29", "name": "HarbourFront", "lat": "1.265277778", "lng": "103.8222222"}, {"label": "CC3", "name": "Esplanade", "lat": "1.293333333", "lng": "103.8552778"}, {"label": "CC30", "name": "Keppel", "lat": "1.27", "lng": "103.8302778"}, {"label": "CC31", "name": "Cantonment", "lat": "1.272777778", "lng": "103.8366667"}, {"label": "CC32", "name": "Prince Edward Road", "lat": "1.273333333", "lng": "103.8472222"}, {"label": "CC4", "name": "Promenade", "lat": "1.293055556", "lng": "103.8611111"}, {"label": "CC5", "name": "Nicoll Highway", "lat": "1.299722222", "lng": "103.8636111"}, {"label": "CC6", "name": "Stadium", "lat": "1.302777778", "lng": "103.8752778"}, {"label": "CC7", "name": "Mountbatten", "lat": "1.306388889", "lng": "103.8825"}, {"label": "CC8", "name": "Dakota", "lat": "1.308333333", "lng": "103.8883333"}, {"label": "CC9", "name": "Paya Lebar", "lat": "1.317777778", "lng": "103.8925"}, {"label": "CE", "name": "Promenade", "lat": "1.293055556", "lng": "103.8611111"}, {"label": "CE1", "name": "Bayfront", "lat": "1.282222222", "lng": "103.8594444"}, {"label": "CE2", "name": "Marina Bay", "lat": "1.276097222", "lng": "103.854675"}, {"label": "CC35", "name": "Promenade", "lat": "1.293055556", "lng": "103.8611111"}, {"label": "CC34", "name": "Bayfront", "lat": "1.282222222", "lng": "103.8594444"}, {"label": "CC33", "name": "Marina Bay", "lat": "1.276097222", "lng": "103.854675"}, {"label": "CG", "name": "Tanah Merah", "lat": "1.327358333", "lng": "103.9463444"}, {"label": "CG1", "name": "Expo", "lat": "1.335469444", "lng": "103.9617667"}, {"label": "CG2", "name": "Changi Airport", "lat": "1.357372222", "lng": "103.9888361"}, {"label": "CP1", "name": "Pasir Ris", "lat": "1.372411111", "lng": "103.9493694"}, {"label": "CP2", "name": "Elias", "lat": "1.383888889", "lng": "103.9380556"}, {"label": "CP3", "name": "Riviera", "lat": "1.3944335", "lng": "103.9161124"}, {"label": "CP4", "name": "Punggol", "lat": "1.405277778", "lng": "103.9025"}, {"label": "CR10", "name": "Tavistock", "lat": "1.37", "lng": "103.8633333"}, {"label": "CR11", "name": "Ang Mo Kio", "lat": "1.370016667", "lng": "103.84945"}, {"label": "CR12", "name": "Teck Ghee", "lat": "1.365555556", "lng": "103.8436111"}, {"label": "CR13", "name": "Bright Hill", "lat": "1.3631844", "lng": "103.8330215"}, {"label": "CR2", "name": "Aviation Park", "lat": "1.37", "lng": "104.0030556"}, {"label": "CR3", "name": "Loyang", "lat": "1.371944444", "lng": "103.9719444"}, {"label": "CR4", "name": "Pasir Ris East", "lat": "1.366111111", "lng": "103.9611111"}, {"label": "CR5", "name": "Pasir Ris", "lat": "1.372411111", "lng": "103.9493694"}, {"label": "CR6", "name": "Tampines North", "lat": "1.369166667", "lng": "103.9377778"}, {"label": "CR7", "name": "Defu", "lat": "1.362222222", "lng": "103.8988889"}, {"label": "CR8", "name": "Hougang", "lat": "1.371388889", "lng": "103.8922222"}, {"label": "CR9", "name": "Serangoon North", "lat": "1.370555556", "lng": "103.8736111"}, {"label": "DT", "name": "Sungei Kadut", "lat": "1.413204", "lng": "103.7487115"}, {"label": "DT1", "name": "Bukit Panjang", "lat": "1.378333333", "lng": "103.7616667"}, {"label": "DT10", "name": "Stevens", "lat": "1.32", "lng": "103.8261111"}, {"label": "DT11", "name": "Newton", "lat": "1.313055556", "lng": "103.8383333"}, {"label": "DT12", "name": "Little India", "lat": "1.306666667", "lng": "103.8491667"}, {"label": "DT13", "name": "Rochor", "lat": "1.303763889", "lng": "103.8525806"}, {"label": "DT14", "name": "Bugis", "lat": "1.300277778", "lng": "103.8561111"}, {"label": "DT15", "name": "Promenade", "lat": "1.293055556", "lng": "103.8611111"}, {"label": "DT16", "name": "Bayfront", "lat": "1.282222222", "lng": "103.8594444"}, {"label": "DT17", "name": "Downtown", "lat": "1.279444444", "lng": "103.8530556"}, {"label": "DT18", "name": "Telok Ayer", "lat": "1.282222222", "lng": "103.8483333"}, {"label": "DT19", "name": "Chinatown", "lat": "1.284722222", "lng": "103.8438889"}, {"label": "DT2", "name": "Cashew", "lat": "1.368888889", "lng": "103.7647222"}, {"label": "DT20", "name": "Fort Canning", "lat": "1.292481", "lng": "103.844325"}, {"label": "DT21", "name": "Bencoolen", "lat": "1.2984867", "lng": "103.8501356"}, {"label": "DT22", "name": "Jalan Besar", "lat": "1.305555556", "lng": "103.8552778"}, {"label": "DT23", "name": "Bendemeer", "lat": "1.314166667", "lng": "103.8613889"}, {"label": "DT24", "name": "Geylang Bahru", "lat": "1.321388889", "lng": "103.8713889"}, {"label": "DT25", "name": "Mattar", "lat": "1.327222222", "lng": "103.8827778"}, {"label": "DT26", "name": "MacPherson", "lat": "1.326666667", "lng": "103.89"}, {"label": "DT27", "name": "Ubi", "lat": "1.33", "lng": "103.9"}, {"label": "DT28", "name": "Kaki Bukit", "lat": "1.335", "lng": "103.9088889"}, {"label": "DT29", "name": "Bedok North", "lat": "1.3350267", "lng": "103.9179065"}, {"label": "DT3", "name": "Hillview", "lat": "1.3625", "lng": "103.7675"}, {"label": "DT30", "name": "Bedok Reservoir", "lat": "1.336666667", "lng": "103.9308333"}, {"label": "DT31", "name": "Tampines West", "lat": "1.345555556", "lng": "103.9383333"}, {"label": "DT32", "name": "Tampines", "lat": "1.3546729", "lng": "103.9426614"}, {"label": "DT33", "name": "Tampines East", "lat": "1.356388889", "lng": "103.9547222"}, {"label": "DT34", "name": "Upper Changi", "lat": "1.341944444", "lng": "103.9613889"}, {"label": "DT35", "name": "Expo", "lat": "1.335469444", "lng": "103.9617667"}, {"label": "DT36", "name": "Xilin", "lat": "1.328888889", "lng": "103.965"}, {"label": "DT37", "name": "Sungei Bedok", "lat": "1.320277778", "lng": "103.9572222"}, {"label": "DT4", "name": "Hume", "lat": "1.354722222", "lng": "103.7691667"}, {"label": "DT5", "name": "Beauty World", "lat": "1.341111111", "lng": "103.7758333"}, {"label": "DT6", "name": "King Albert Park", "lat": "1.335555556", "lng": "103.7838889"}, {"label": "DT7", "name": "Sixth Avenue", "lat": "1.330833333", "lng": "103.7975"}, {"label": "DT8", "name": "Tan Kah Kee", "lat": "1.326111111", "lng": "103.8072222"}, {"label": "DT9", "name": "Botanic Gardens", "lat": "1.3225", "lng": "103.8152778"}, {"label": "EW1", "name": "Pasir Ris", "lat": "1.3710597", "lng": "103.9487471"}, {"label": "EW10", "name": "Kallang", "lat": "1.311469444", "lng": "103.8714"}, {"label": "EW11", "name": "Lavender", "lat": "1.307166667", "lng": "103.8630083"}, {"label": "EW12", "name": "Bugis", "lat": "1.300277778", "lng": "103.8561111"}, {"label": "EW13", "name": "City Hall", "lat": "1.2933274", "lng": "103.852603"}, {"label": "EW14", "name": "Raffles Place", "lat": "1.283880556", "lng": "103.8515333"}, {"label": "EW15", "name": "Tanjong Pagar", "lat": "1.276438889", "lng": "103.8457111"}, {"label": "EW16", "name": "Outram Park", "lat": "1.280277778", "lng": "103.8394444"}, {"label": "EW17", "name": "Tiong Bahru", "lat": "1.286080556", "lng": "103.8269583"}, {"label": "EW18", "name": "Redhill", "lat": "1.289733333", "lng": "103.81675"}, {"label": "EW19", "name": "Queenstown", "lat": "1.294441667", "lng": "103.8061139"}, {"label": "EW2", "name": "Tampines", "lat": "1.3532089", "lng": "103.9451666"}, {"label": "EW20", "name": "Commonwealth", "lat": "1.302558333", "lng": "103.798225"}, {"label": "EW21", "name": "Buona Vista", "lat": "1.3073226", "lng": "103.7899205"}, {"label": "EW22", "name": "Dover", "lat": "1.311313889", "lng": "103.7786583"}, {"label": "EW23", "name": "Clementi", "lat": "1.315302778", "lng": "103.7652444"}, {"label": "EW24", "name": "Jurong East", "lat": "1.333333333", "lng": "103.7422222"}, {"label": "EW25", "name": "Chinese Garden", "lat": "1.342711111", "lng": "103.7324667"}, {"label": "EW26", "name": "Lakeside", "lat": "1.344588889", "lng": "103.7211389"}, {"label": "EW27", "name": "Boon Lay", "lat": "1.338883333", "lng": "103.7062083"}, {"label": "EW28", "name": "Pioneer", "lat": "1.337577778", "lng": "103.6972167"}, {"label": "EW29", "name": "Joo Koon", "lat": "1.327738889", "lng": "103.6784861"}, {"label": "EW3", "name": "Simei", "lat": "1.3431763", "lng": "103.9533787"}, {"label": "EW30", "name": "Gul Circle", "lat": "1.3196018", "lng": "103.6607218"}, {"label": "EW31", "name": "Tuas Crescent", "lat": "1.321138889", "lng": "103.649"}, {"label": "EW32", "name": "Tuas West Road", "lat": "1.330055556", "lng": "103.6396111"}, {"label": "EW33", "name": "Tuas Link", "lat": "1.340277778", "lng": "103.6368056"}, {"label": "EW4", "name": "Tanah Merah", "lat": "1.327358333", "lng": "103.9463444"}, {"label": "EW5", "name": "Bedok", "lat": "1.324038889", "lng": "103.9300361"}, {"label": "EW6", "name": "Kembangan", "lat": "1.320983333", "lng": "103.9128417"}, {"label": "EW7", "name": "Eunos", "lat": "1.319725", "lng": "103.9031083"}, {"label": "EW8", "name": "Paya Lebar", "lat": "1.317777778", "lng": "103.8925"}, {"label": "EW9", "name": "Aljunied", "lat": "1.316441667", "lng": "103.8829806"}, {"label": "JE1", "name": "Tengah Plantation", "lat": "1.357222222", "lng": "103.7333333"}, {"label": "JE2", "name": "Tengah Park", "lat": "1.352222222", "lng": "103.7366667"}, {"label": "JE3", "name": "Bukit Batok West", "lat": "1.345555556", "lng": "103.7397222"}, {"label": "JE4", "name": "Toh Guan", "lat": "1.339722222", "lng": "103.7425"}, {"label": "JE5", "name": "Jurong East", "lat": "1.3334835", "lng": "103.7422437"}, {"label": "JE6", "name": "Jurong Town Hall", "lat": "1.326111111", "lng": "103.7461111"}, {"label": "JE7", "name": "Pandan Reservoir", "lat": "1.32", "lng": "103.745"}, {"label": "JS1", "name": "Choa Chu Kang", "lat": "1.385", "lng": "103.7444444"}, {"label": "JS10", "name": "Tukang", "lat": "1.325277778", "lng": "103.7091667"}, {"label": "JS11", "name": "Jurong Hill", "lat": "1.318611111", "lng": "103.7102778"}, {"label": "JS12", "name": "Jurong Pier", "lat": "1.313055556", "lng": "103.7102778"}, {"label": "JS2", "name": "Choa Chu Kang West", "lat": "1.3791803", "lng": "103.7400041"}, {"label": "JS3", "name": "Tengah", "lat": "1.366388889", "lng": "103.73"}, {"label": "JE", "name": "Tengah", "lat": "1.366388889", "lng": "103.73"}, {"label": "JS4", "name": "Hong Kah", "lat": "1.358055556", "lng": "103.7258333"}, {"label": "JS5", "name": "Corporation", "lat": "1.353055556", "lng": "103.7138889"}, {"label": "JS6", "name": "Jurong West", "lat": "1.349166667", "lng": "103.7083333"}, {"label": "JS7", "name": "Bahar Junction", "lat": "1.345422222", "lng": "103.7025417"}, {"label": "JW", "name": "Bahar Junction", "lat": "1.345422222", "lng": "103.7025417"}, {"label": "JS8", "name": "Boon Lay", "lat": "1.338883333", "lng": "103.7062083"}, {"label": "JS9", "name": "Enterprise", "lat": "1.332777778", "lng": "103.7086111"}, {"label": "JW1", "name": "Gek Poh", "lat": "1.348333333", "lng": "103.6980556"}, {"label": "JW2", "name": "Tawas", "lat": "1.350555556", "lng": "103.6919444"}, {"label": "JW3", "name": "Nanyang Gateway", "lat": "1.353611111", "lng": "103.6866667"}, {"label": "JW4", "name": "Nanyang Crescent", "lat": "1.348333333", "lng": "103.6808333"}, {"label": "JW5", "name": "Peng Kang Hill", "lat": "1.343333333", "lng": "103.6786111"}, {"label": "NE1", "name": "HarbourFront", "lat": "1.265277778", "lng": "103.8222222"}, {"label": "NE10", "name": "Potong Pasir", "lat": "1.331111111", "lng": "103.8691667"}, {"label": "NE11", "name": "Woodleigh", "lat": "1.339166667", "lng": "103.8708333"}, {"label": "NE12", "name": "Serangoon", "lat": "1.3491741", "lng": "103.8734848"}, {"label": "NE13", "name": "Kovan", "lat": "1.360277778", "lng": "103.885"}, {"label": "NE14", "name": "Hougang", "lat": "1.371388889", "lng": "103.8922222"}, {"label": "NE15", "name": "Buangkok", "lat": "1.382777778", "lng": "103.8927778"}, {"label": "NE16", "name": "Sengkang", "lat": "1.391664", "lng": "103.8954667"}, {"label": "NE17", "name": "Punggol", "lat": "1.405277778", "lng": "103.9025"}, {"label": "NE18", "name": "Punggol Coast", "lat": "1.4144605", "lng": "103.9104365"}, {"label": "NE3", "name": "Outram Park", "lat": "1.280277778", "lng": "103.8394444"}, {"label": "NE4", "name": "Chinatown", "lat": "1.284722222", "lng": "103.8438889"}, {"label": "NE5", "name": "Clarke Quay", "lat": "1.288611111", "lng": "103.8466667"}, {"label": "NE6", "name": "Dhoby Ghaut", "lat": "1.2990701", "lng": "103.8447175"}, {"label": "NE7", "name": "Little India", "lat": "1.306666667", "lng": "103.8491667"}, {"label": "NE8", "name": "Farrer Park", "lat": "1.312222222", "lng": "103.8541667"}, {"label": "NE9", "name": "Boon Keng", "lat": "1.319444444", "lng": "103.8616667"}, {"label": "NS1", "name": "Jurong East", "lat": "1.3331671", "lng": "103.7422812"}, {"label": "NS10", "name": "Admiralty", "lat": "1.440688889", "lng": "103.8009333"}, {"label": "NS11", "name": "Sembawang", "lat": "1.449025", "lng": "103.8201528"}, {"label": "NS12", "name": "Canberra", "lat": "1.443055556", "lng": "103.8297222"}, {"label": "NS13", "name": "Yishun", "lat": "1.429463889", "lng": "103.8352389"}, {"label": "NS14", "name": "Khatib", "lat": "1.417166667", "lng": "103.8329"}, {"label": "NS15", "name": "Yio Chu Kang", "lat": "1.381905556", "lng": "103.8448167"}, {"label": "NS16", "name": "Ang Mo Kio", "lat": "1.370016667", "lng": "103.84945"}, {"label": "NS17", "name": "Bishan", "lat": "1.351111111", "lng": "103.8483333"}, {"label": "NS18", "name": "Braddell", "lat": "1.340338889", "lng": "103.846725"}, {"label": "NS19", "name": "Toa Payoh", "lat": "1.332777778", "lng": "103.8475"}, {"label": "NS2", "name": "Bukit Batok", "lat": "1.349166667", "lng": "103.7497222"}, {"label": "NS20", "name": "Novena", "lat": "1.320394444", "lng": "103.8436889"}, {"label": "NS21", "name": "Newton", "lat": "1.313055556", "lng": "103.8383333"}, {"label": "NS22", "name": "Orchard", "lat": "1.303333333", "lng": "103.8316667"}, {"label": "NS23", "name": "Somerset", "lat": "1.300513889", "lng": "103.8390278"}, {"label": "NS24", "name": "Dhoby Ghaut", "lat": "1.2986035", "lng": "103.8456455"}, {"label": "NS25", "name": "City Hall", "lat": "1.293322", "lng": "103.852603"}, {"label": "NS26", "name": "Raffles Place", "lat": "1.283880556", "lng": "103.8515333"}, {"label": "NS27", "name": "Marina Bay", "lat": "1.276097222", "lng": "103.854675"}, {"label": "NS28", "name": "Marina South Pier", "lat": "1.270958333", "lng": "103.8632417"}, {"label": "NS3", "name": "Bukit Gombak", "lat": "1.358611111", "lng": "103.7516667"}, {"label": "NS3A", "name": "Brickland", "lat": "1.369722222", "lng": "103.7477778"}, {"label": "NS4", "name": "Choa Chu Kang", "lat": "1.385", "lng": "103.7444444"}, {"label": "NS5", "name": "Yew Tee", "lat": "1.396986111", "lng": "103.7472389"}, {"label": "NS6", "name": "Sungei Kadut", "lat": "1.413204", "lng": "103.7487115"}, {"label": "NS7", "name": "Kranji", "lat": "1.425047222", "lng": "103.7618528"}, {"label": "NS8", "name": "Marsiling", "lat": "1.432636111", "lng": "103.7742833"}, {"label": "NS9", "name": "Woodlands", "lat": "1.437094444", "lng": "103.7864833"}, {"label": "PE1", "name": "Cove", "lat": "1.3994411", "lng": "103.9058269"}, {"label": "PE2", "name": "Meridian", "lat": "1.3969617", "lng": "103.9088653"}, {"label": "PE3", "name": "Coral Edge", "lat": "1.3938374", "lng": "103.9126129"}, {"label": "PE4", "name": "Riviera", "lat": "1.3944443", "lng": "103.9161016"}, {"label": "PE5", "name": "Kadaloor", "lat": "1.399686111", "lng": "103.9163528"}, {"label": "PE6", "name": "Oasis", "lat": "1.402369444", "lng": "103.9124222"}, {"label": "PE7", "name": "Damai", "lat": "1.4052617", "lng": "103.9085961"}, {"label": "PW1", "name": "Sam Kee", "lat": "1.4097715", "lng": "103.9049374"}, {"label": "PW2", "name": "Teck Lee", "lat": "1.4126927", "lng": "103.9065766"}, {"label": "PW3", "name": "Punggol Point", "lat": "1.416883333", "lng": "103.9063528"}, {"label": "PW4", "name": "Samudera", "lat": "1.4158106", "lng": "103.9022526"}, {"label": "PW5", "name": "Nibong", "lat": "1.4117812", "lng": "103.9003711"}, {"label": "PW6", "name": "Sumang", "lat": "1.408431", "lng": "103.8985038"}, {"label": "PW7", "name": "Soo Teck", "lat": "1.4053094", "lng": "103.8972555"}, {"label": "SE1", "name": "Compassvale", "lat": "1.394444444", "lng": "103.9002778"}, {"label": "SE2", "name": "Rumbia", "lat": "1.3914216", "lng": "103.9059676"}, {"label": "SE3", "name": "Bakau", "lat": "1.387852778", "lng": "103.9052667"}, {"label": "SE4", "name": "Kangkar", "lat": "1.383738889", "lng": "103.9021944"}, {"label": "SE5", "name": "Ranggung", "lat": "1.3840002", "lng": "103.8973391"}, {"label": "SW1", "name": "Cheng Lim", "lat": "1.396388889", "lng": "103.8936111"}, {"label": "SW2", "name": "Farmway", "lat": "1.3971866", "lng": "103.8892115"}, {"label": "SW3", "name": "Kupang", "lat": "1.3981981", "lng": "103.8812872"}, {"label": "SW4", "name": "Thanggam", "lat": "1.3972212", "lng": "103.8755883"}, {"label": "SW5", "name": "Fernvale", "lat": "1.3918354", "lng": "103.8762706"}, {"label": "SW6", "name": "Layar", "lat": "1.392148", "lng": "103.8799888"}, {"label": "SW7", "name": "Tongkang", "lat": "1.3893188", "lng": "103.8859224"}, {"label": "SW8", "name": "Renjong", "lat": "1.386613889", "lng": "103.890425"}, {"label": "TE1", "name": "Woodlands North", "lat": "1.448333333", "lng": "103.785"}, {"label": "TE10", "name": "Mount Pleasant", "lat": "1.328611111", "lng": "103.8355556"}, {"label": "TE11", "name": "Stevens", "lat": "1.32", "lng": "103.8261111"}, {"label": "TE12", "name": "Napier", "lat": "1.306944444", "lng": "103.8191667"}, {"label": "TE13", "name": "Orchard Boulevard", "lat": "1.3025", "lng": "103.825"}, {"label": "TE14", "name": "Orchard", "lat": "1.303333333", "lng": "103.8316667"}, {"label": "TE15", "name": "Great World", "lat": "1.295", "lng": "103.8336111"}, {"label": "TE16", "name": "Havelock", "lat": "1.287777778", "lng": "103.8336111"}, {"label": "TE17", "name": "Outram Park", "lat": "1.280277778", "lng": "103.8394444"}, {"label": "TE18", "name": "Maxwell", "lat": "1.2806881", "lng": "103.8440713"}, {"label": "TE19", "name": "Shenton Way", "lat": "1.2775", "lng": "103.8508333"}, {"label": "TE2", "name": "Woodlands", "lat": "1.437094444", "lng": "103.7864833"}, {"label": "TE20", "name": "Marina Bay", "lat": "1.276097222", "lng": "103.854675"}, {"label": "TE21", "name": "Marina South", "lat": "1.273888889", "lng": "103.8630556"}, {"label": "TE22", "name": "Gardens by the Bay", "lat": "1.278333333", "lng": "103.8680556"}, {"label": "TE22A", "name": "Founders' Memorial", "lat": "1.291111111", "lng": "103.8686111"}, {"label": "TE23", "name": "Tanjong Rhu", "lat": "1.297222222", "lng": "103.8733333"}, {"label": "TE24", "name": "Katong Park", "lat": "1.297777778", "lng": "103.8852778"}, {"label": "TE25", "name": "Tanjong Katong", "lat": "1.299166667", "lng": "103.8977778"}, {"label": "TE26", "name": "Marine Parade", "lat": "1.3025", "lng": "103.905"}, {"label": "TE27", "name": "Marine Terrace", "lat": "1.306111111", "lng": "103.9133333"}, {"label": "TE28", "name": "Siglap", "lat": "1.309722222", "lng": "103.9288889"}, {"label": "TE29", "name": "Bayshore", "lat": "1.314722222", "lng": "103.9436111"}, {"label": "TE3", "name": "Woodlands South", "lat": "1.427222222", "lng": "103.7938889"}, {"label": "TE30", "name": "Bedok South", "lat": "1.316666667", "lng": "103.9483333"}, {"label": "TE31", "name": "Sungei Bedok", "lat": "1.320277778", "lng": "103.9572222"}, {"label": "TE4", "name": "Springleaf", "lat": "1.397777778", "lng": "103.8183333"}, {"label": "TE5", "name": "Lentor", "lat": "1.384722222", "lng": "103.8366667"}, {"label": "TE6", "name": "Mayflower", "lat": "1.3725", "lng": "103.8372222"}, {"label": "TE7", "name": "Bright Hill", "lat": "1.3631897", "lng": "103.8330161"}, {"label": "TE8", "name": "Upper Thomson", "lat": "1.354166667", "lng": "103.8333333"}, {"label": "TE9", "name": "Caldecott", "lat": "1.337777778", "lng": "103.8394444"}, {"label": "CR14", "name": "Turf City", "lat": "1.3406034", "lng": "103.7935369"}, {"label": "CR16", "name": "Maju", "lat": "1.3272925", "lng": "103.7761483"}, {"label": "CR18", "name": "West Coast", "lat": "1.3103669", "lng": "103.7577269"}, {"label": "CR19", "name": "Jurong Lake District", "lat": "1.3272604", "lng": "103.7391875"}, {"label": "CR15", "name": "King Albert Park", "lat": "1.3352833", "lng": "103.7833647"}, {"label": "CR17", "name": "Clementi", "lat": "1.3147324", "lng": "103.7651162"}, {"label": "PE", "name": "Punggol", "lat": "1.405277778", "lng": "103.9025"}, {"label": "PW", "name": "Punggol", "lat": "1.405277778", "lng": "103.9025"}, {"label": "SE", "name": "Sengkang", "lat": "1.391672", "lng": "103.895464"}, {"label": "SW", "name": "Sengkang", "lat": "1.391672", "lng": "103.895464"}]